{
  "AEAJM": {
    "name": "Ajman",
    "city": "Ajman",
    "country": "United Arab Emirates",
    "alias": [],
    "regions": [],
    "coordinates": [
      55.5136433,
      25.4052165
    ],
    "province": "Ajman",
    "timezone": "Asia/Dubai",
    "unlocs": [
      "AEAJM"
    ],
    "code": "52000"
  },
  "AEAUH": {
    "name": "Abu Dhabi",
    "coordinates": [
      54.37,
      24.47
    ],
    "city": "Abu Dhabi",
    "province": "Abu Z¸aby [Abu Dhabi]",
    "country": "United Arab Emirates",
    "alias": [],
    "regions": [],
    "timezone": "Asia/Dubai",
    "unlocs": [
      "AEAUH"
    ],
    "code": "52001"
  },
  "AEDXB": {
    "name": "Dubai",
    "coordinates": [
      55.27,
      25.25
    ],
    "city": "Dubai",
    "province": "Dubayy [Dubai]",
    "country": "United Arab Emirates",
    "alias": [],
    "regions": [],
    "timezone": "Asia/Dubai",
    "unlocs": [
      "AEDXB"
    ],
    "code": "52005"
  },
  "AEFJR": {
    "name": "Al Fujayrah",
    "coordinates": [
      56.33,
      25.12
    ],
    "city": "Al Fujayrah",
    "province": "Al Fujayrah",
    "country": "United Arab Emirates",
    "alias": [],
    "regions": [],
    "timezone": "Asia/Dubai",
    "unlocs": [
      "AEFJR"
    ]
  },
  "AEJEA": {
    "name": "Jebel Ali",
    "city": "Jebel Ali",
    "country": "United Arab Emirates",
    "alias": [],
    "regions": [],
    "coordinates": [
      55.0272904,
      24.9857145
    ],
    "province": "Dubai",
    "timezone": "Asia/Dubai",
    "unlocs": [
      "AEJEA"
    ],
    "code": "52051"
  },
  "AEJED": {
    "name": "Jebel Dhanna",
    "city": "Jebel Dhanna",
    "country": "United Arab Emirates",
    "alias": [],
    "regions": [],
    "coordinates": [
      52.6126027,
      24.1915137
    ],
    "province": "Abu Dhabi",
    "timezone": "Asia/Dubai",
    "unlocs": [
      "AEJED"
    ],
    "code": "52050"
  },
  "AEKLF": {
    "name": "Khor al Fakkan",
    "coordinates": [
      56.35,
      25.33
    ],
    "city": "Khor al Fakkan",
    "country": "United Arab Emirates",
    "alias": [],
    "regions": [],
    "timezone": "Asia/Dubai",
    "unlocs": [
      "AEKLF"
    ]
  },
  "AEPRA": {
    "name": "Port Rashid",
    "city": "Port Rashid",
    "country": "United Arab Emirates",
    "alias": [],
    "regions": [],
    "coordinates": [
      55.2756505,
      25.284755
    ],
    "province": "Dubai",
    "timezone": "Asia/Dubai",
    "unlocs": [
      "AEPRA"
    ],
    "code": "52005"
  },
  "AEQIW": {
    "name": "Umm al Qaiwain",
    "coordinates": [
      55.55,
      25.57
    ],
    "city": "Umm al Qaiwain",
    "country": "United Arab Emirates",
    "alias": [],
    "regions": [],
    "province": "Umm Al Quwain",
    "timezone": "Asia/Dubai",
    "unlocs": [
      "AEQIW"
    ]
  },
  "AERKT": {
    "name": "Ras al Khaimah",
    "coordinates": [
      55.95,
      25.78
    ],
    "city": "Ras al Khaimah",
    "country": "United Arab Emirates",
    "alias": [],
    "regions": [],
    "province": "Ras al Khaimah",
    "timezone": "Asia/Dubai",
    "unlocs": [
      "AERKT"
    ],
    "code": "52000"
  },
  "AERUW": {
    "name": "Ar Ruways",
    "coordinates": [
      52.73,
      24.12
    ],
    "city": "Ar Ruways",
    "country": "United Arab Emirates",
    "alias": [],
    "regions": [],
    "province": "Abu Dhabi",
    "timezone": "Asia/Dubai",
    "unlocs": [
      "AERUW"
    ]
  },
  "AESHJ": {
    "name": "Sharjah",
    "coordinates": [
      55.38,
      25.35
    ],
    "city": "Sharjah",
    "province": "Ash Shariqah [Sharjah]",
    "country": "United Arab Emirates",
    "alias": [],
    "regions": [],
    "timezone": "Asia/Dubai",
    "unlocs": [
      "AESHJ"
    ],
    "code": "52070"
  },
  "AGANU": {
    "name": "Antigua",
    "city": "Antigua",
    "country": "Antigua and Barbuda",
    "alias": [],
    "regions": [],
    "coordinates": [
      -61.8175207,
      17.0746557
    ],
    "timezone": "America/Antigua",
    "unlocs": [
      "AGANU"
    ],
    "code": "24831"
  },
  "AGSJO": {
    "name": "Saint John's",
    "coordinates": [
      -61.85,
      17.12
    ],
    "city": "Saint John's",
    "country": "Antigua and Barbuda",
    "alias": [],
    "regions": [],
    "province": "Saint John",
    "timezone": "America/Antigua",
    "unlocs": [
      "AGSJO"
    ],
    "code": "24831"
  },
  "AIBLP": {
    "name": "Blowing Point",
    "city": "Blowing Point",
    "country": "Anguilla",
    "alias": [],
    "regions": [],
    "coordinates": [
      -63.093518,
      18.177343
    ],
    "timezone": "America/Anguilla",
    "unlocs": [
      "AIBLP"
    ],
    "code": "24821"
  },
  "AIRBY": {
    "name": "Road Bay",
    "city": "Road Bay",
    "country": "Anguilla",
    "alias": [],
    "regions": [],
    "coordinates": [
      -63.0653265,
      18.2207493
    ],
    "timezone": "America/Anguilla",
    "unlocs": [
      "AIRBY"
    ],
    "code": "24821"
  },
  "ALDRZ": {
    "name": "Durres",
    "city": "Durrës",
    "country": "Albania",
    "alias": [],
    "regions": [],
    "coordinates": [
      19.4616074,
      41.3328072
    ],
    "timezone": "Europe/Tirane",
    "unlocs": [
      "ALDRZ"
    ],
    "code": "48109"
  },
  "ANBON": {
    "name": "Bonaire",
    "city": "Bonaire",
    "country": "Netherlands Antilles",
    "alias": [],
    "regions": [],
    "coordinates": [
      -68.26238219999999,
      12.2018902
    ],
    "timezone": "America/Curacao",
    "unlocs": [
      "ANBON"
    ]
  },
  "ANCUR": {
    "name": "Curacao",
    "city": "Curacao",
    "country": "Netherlands Antilles",
    "alias": [],
    "regions": [],
    "coordinates": [
      -68.8824233,
      12.1224221
    ],
    "province": "Curaçao",
    "timezone": "America/Curacao",
    "unlocs": [
      "ANCUR"
    ]
  },
  "ANEUX": {
    "name": "Sint Eustatius (Antilles)",
    "city": "Sint Eustatius (Antilles)",
    "country": "Netherlands",
    "alias": [],
    "regions": [],
    "coordinates": [
      -63.08416659999999,
      18.0348259
    ],
    "province": "Sint Maarten",
    "timezone": "America/Curacao",
    "unlocs": [
      "ANEUX"
    ]
  },
  "ANGSB": {
    "name": "Galisby",
    "city": "Galisby",
    "country": "Netherlands Antilles",
    "alias": [],
    "regions": [],
    "coordinates": [
      12.1686756,
      -68.4486145
    ],
    "unlocs": [
      "ANGSB"
    ]
  },
  "ANPHI": {
    "name": "Philipsburg",
    "city": "Philipsburg",
    "country": "Netherlands Antilles",
    "alias": [],
    "regions": [],
    "coordinates": [
      -63.04713709999999,
      18.0295839
    ],
    "province": "Sint Maarten",
    "timezone": "America/Curacao",
    "unlocs": [
      "ANPHI"
    ]
  },
  "ANSXM": {
    "name": "St Maarten",
    "city": "St Maarten",
    "country": "Netherlands Antilles",
    "alias": [],
    "regions": [],
    "coordinates": [
      -68.81088489999999,
      12.2248767
    ],
    "timezone": "America/Curacao",
    "unlocs": [
      "ANSXM"
    ]
  },
  "ANWIL": {
    "name": "Willemstad",
    "city": "Willemstad",
    "country": "Netherlands Antilles",
    "alias": [],
    "regions": [],
    "coordinates": [
      -68.8824233,
      12.1224221
    ],
    "province": "Curaçao",
    "timezone": "America/Curacao",
    "unlocs": [
      "ANWIL"
    ]
  },
  "AOCAB": {
    "name": "Cabinda",
    "city": "Cabinda",
    "country": "Angola",
    "alias": [],
    "regions": [],
    "coordinates": [
      12.197583,
      -5.570573899999999
    ],
    "province": "Cabinda",
    "timezone": "Africa/Luanda",
    "unlocs": [
      "AOCAB"
    ],
    "code": "76231"
  },
  "AOLAD": {
    "name": "Luanda",
    "city": "Luanda",
    "country": "Angola",
    "alias": [],
    "regions": [],
    "coordinates": [
      13.2894368,
      -8.839987599999999
    ],
    "province": "Luanda",
    "timezone": "Africa/Luanda",
    "unlocs": [
      "AOLAD"
    ],
    "code": "76278"
  },
  "AOLOB": {
    "name": "Lobito",
    "city": "Lobito",
    "country": "Angola",
    "alias": [],
    "regions": [],
    "coordinates": [
      13.5610451,
      -12.3757287
    ],
    "province": "Benguela",
    "timezone": "Africa/Luanda",
    "unlocs": [
      "AOLOB"
    ],
    "code": "76274"
  },
  "AOMSZ": {
    "name": "Namibe",
    "city": "Namibe",
    "country": "Angola",
    "alias": [],
    "regions": [],
    "coordinates": [
      12.1575544,
      -15.1978317
    ],
    "province": "Namibe",
    "timezone": "Africa/Luanda",
    "unlocs": [
      "AOMSZ"
    ],
    "code": "76279"
  },
  "AOSZA": {
    "name": "Soyo",
    "city": "Soyo",
    "country": "Angola",
    "alias": [],
    "regions": [],
    "coordinates": [
      12.3521148,
      -6.1410265
    ],
    "province": "Zaire",
    "timezone": "Africa/Luanda",
    "unlocs": [
      "AOSZA"
    ],
    "code": "76281"
  },
  "ARBHI": {
    "name": "Bahia Blanca",
    "coordinates": [
      -62.28,
      -38.72
    ],
    "city": "Bahía Blanca",
    "province": "Buenos Aires",
    "country": "Argentina",
    "alias": [],
    "regions": [],
    "timezone": "America/Cordoba",
    "unlocs": [
      "ARBHI"
    ],
    "code": "35701"
  },
  "ARBUE": {
    "name": "Buenos Aires",
    "coordinates": [
      -58.67,
      -34.58
    ],
    "city": "Buenos Aires",
    "province": "Ciudad Autónoma de Buenos Aires",
    "country": "Argentina",
    "alias": [],
    "regions": [],
    "timezone": "America/Cordoba",
    "unlocs": [
      "ARBUE"
    ],
    "code": "35705"
  },
  "ARCMP": {
    "name": "Campana",
    "coordinates": [
      -58.95,
      -34.15
    ],
    "city": "Campana",
    "province": "Buenos Aires",
    "country": "Argentina",
    "alias": [],
    "regions": [],
    "timezone": "America/Cordoba",
    "unlocs": [
      "ARCMP"
    ],
    "code": "35711"
  },
  "ARCNQ": {
    "name": "Corrientes",
    "city": "Corrientes",
    "province": "Corrientes",
    "country": "Argentina",
    "alias": [],
    "regions": [],
    "coordinates": [
      -58.8306349,
      -27.4692131
    ],
    "timezone": "America/Cordoba",
    "unlocs": [
      "ARCNQ"
    ],
    "code": "35700"
  },
  "ARCRD": {
    "name": "Comodoro Rivadavia",
    "city": "Comodoro Rivadavia",
    "province": "Chubut",
    "country": "Argentina",
    "alias": [],
    "regions": [],
    "coordinates": [
      -67.4822429,
      -45.8656149
    ],
    "timezone": "America/Cordoba",
    "unlocs": [
      "ARCRD"
    ],
    "code": "35702"
  },
  "ARCVI": {
    "name": "Caleta Olivia",
    "city": "Caleta Olivia",
    "province": "Santa Cruz",
    "country": "Argentina",
    "alias": [],
    "regions": [],
    "coordinates": [
      -67.5171533,
      -46.4425647
    ],
    "timezone": "America/Cordoba",
    "unlocs": [
      "ARCVI"
    ],
    "code": "35703"
  },
  "ARDDC": {
    "name": "Delta Dock",
    "city": "Delta Dock",
    "province": "Rio Parana",
    "country": "Argentina",
    "alias": [],
    "regions": [],
    "coordinates": [
      -34.0447572,
      -59.199761
    ],
    "unlocs": [
      "ARDDC"
    ],
    "code": "35700"
  },
  "ARLPG": {
    "name": "La Plata",
    "coordinates": [
      -57.88,
      -34.85
    ],
    "city": "La Plata",
    "province": "Buenos Aires",
    "country": "Argentina",
    "alias": [],
    "regions": [],
    "timezone": "America/Cordoba",
    "unlocs": [
      "ARLPG"
    ],
    "code": "35737"
  },
  "ARMDQ": {
    "name": "Mar del Plata",
    "coordinates": [
      -57.53,
      -38.05
    ],
    "city": "Mar del Plata",
    "province": "Buenos Aires",
    "country": "Argentina",
    "alias": [],
    "regions": [],
    "timezone": "America/Cordoba",
    "unlocs": [
      "ARMDQ"
    ],
    "code": "35739"
  },
  "ARNEC": {
    "name": "Necochea",
    "city": "Necochea",
    "province": "Buenos Aires",
    "country": "Argentina",
    "alias": [],
    "regions": [],
    "coordinates": [
      -58.73960879999999,
      -38.5544968
    ],
    "timezone": "America/Cordoba",
    "unlocs": [
      "ARNEC"
    ],
    "code": "35741"
  },
  "AROYA": {
    "name": "Goya",
    "city": "Goya",
    "province": "Corrientes",
    "country": "Argentina",
    "alias": [],
    "regions": [],
    "coordinates": [
      -59.2643242,
      -29.1442242
    ],
    "timezone": "America/Cordoba",
    "unlocs": [
      "AROYA"
    ],
    "code": "35700"
  },
  "ARPMY": {
    "name": "Puerto Madryn",
    "coordinates": [
      -65.03,
      -42.75
    ],
    "city": "Puerto Madryn",
    "province": "Chubut",
    "country": "Argentina",
    "alias": [],
    "regions": [],
    "timezone": "America/Cordoba",
    "unlocs": [
      "ARPMY"
    ],
    "code": "35740"
  },
  "ARPUD": {
    "name": "Puerto Deseado",
    "coordinates": [
      -65.9,
      -47.75
    ],
    "city": "Puerto Deseado",
    "province": "Santa Cruz",
    "country": "Argentina",
    "alias": [],
    "regions": [],
    "timezone": "America/Cordoba",
    "unlocs": [
      "ARPUD"
    ],
    "code": "35745"
  },
  "ARRGA": {
    "name": "Rio Grande",
    "coordinates": [
      -67.7,
      -53.78
    ],
    "city": "Río Grande",
    "province": "Tierra del Fuego",
    "country": "Argentina",
    "alias": [],
    "regions": [],
    "timezone": "America/Cordoba",
    "unlocs": [
      "ARRGA"
    ],
    "code": "35700"
  },
  "ARRGL": {
    "name": "Rio Gallegos",
    "coordinates": [
      -69.22,
      -51.63
    ],
    "city": "Río Gallegos",
    "province": "Santa Cruz",
    "country": "Argentina",
    "alias": [],
    "regions": [],
    "timezone": "America/Cordoba",
    "unlocs": [
      "ARRGL"
    ],
    "code": "35700"
  },
  "ARRIC": {
    "name": "Rio Cullen",
    "city": "Rio Cullen",
    "province": "Zaire",
    "country": "Argentina",
    "unlocs": [
      "ARRIC"
    ],
    "timezone": "America/Argentina",
    "coordinates": [
      -68.3523021,
      -52.8955609
    ],
    "alias": [],
    "regions": [],
    "code": "35700"
  },
  "ARROS": {
    "name": "Rosario",
    "coordinates": [
      -60.65,
      -32.95
    ],
    "city": "Rosario",
    "province": "Santa Fe",
    "country": "Argentina",
    "alias": [],
    "regions": [],
    "timezone": "America/Cordoba",
    "unlocs": [
      "ARROS"
    ],
    "code": "35771"
  },
  "ARSAE": {
    "name": "San Antonio Este",
    "coordinates": [
      -64.73,
      -40.8
    ],
    "city": "San Antonio Este",
    "province": "Río Negro",
    "country": "Argentina",
    "alias": [],
    "regions": [],
    "timezone": "America/Cordoba",
    "unlocs": [
      "ARSAE"
    ],
    "code": "35700"
  },
  "ARSFN": {
    "name": "Santa Fe",
    "coordinates": [
      -60.68,
      -31.6
    ],
    "city": "Santa Fe",
    "province": "Santa Fe",
    "country": "Argentina",
    "alias": [],
    "regions": [],
    "timezone": "America/Cordoba",
    "unlocs": [
      "ARSFN"
    ],
    "code": "35791"
  },
  "ARSLO": {
    "name": "San Lorenzo",
    "city": "San Lorenzo",
    "province": "La Pampa",
    "country": "Argentina",
    "alias": [],
    "regions": [],
    "coordinates": [
      -60.7238722,
      -32.8072889
    ],
    "timezone": "America/Cordoba",
    "unlocs": [
      "ARSLO"
    ],
    "code": "35779"
  },
  "ARSNS": {
    "name": "San Nicolas de los Arroyos",
    "coordinates": [
      -60.23,
      -33.33
    ],
    "city": "San Nicolás de los Arroyos",
    "province": "Buenos Aires",
    "country": "Argentina",
    "alias": [],
    "regions": [],
    "timezone": "America/Cordoba",
    "unlocs": [
      "ARSNS"
    ],
    "code": "35781"
  },
  "ARSPD": {
    "name": "San Pedro",
    "coordinates": [
      -59.17,
      -33.68
    ],
    "city": "San Pedro",
    "province": "Entre Ríos",
    "country": "Argentina",
    "alias": [],
    "regions": [],
    "timezone": "America/Cordoba",
    "unlocs": [
      "ARSPD"
    ],
    "code": "35785"
  },
  "ARUSH": {
    "name": "Ushuaia",
    "coordinates": [
      -68.3,
      -54.8
    ],
    "city": "Ushuaia",
    "province": "Tierra del Fuego",
    "country": "Argentina",
    "alias": [],
    "regions": [],
    "timezone": "America/Cordoba",
    "unlocs": [
      "ARUSH"
    ],
    "code": "35700"
  },
  "ARZAE": {
    "name": "Zarate",
    "coordinates": [
      -59.03,
      -34.1
    ],
    "city": "Zárate",
    "province": "Buenos Aires",
    "country": "Argentina",
    "alias": [],
    "regions": [],
    "timezone": "America/Cordoba",
    "unlocs": [
      "ARZAE"
    ],
    "code": "35796"
  },
  "ASPPG": {
    "name": "Pago Pago",
    "city": "Pago Pago",
    "country": "American Samoa",
    "alias": [],
    "regions": [],
    "coordinates": [
      -170.7020359,
      -14.2756319
    ],
    "province": "Eastern",
    "timezone": "Pacific/Pago_Pago",
    "unlocs": [
      "ASPPG"
    ],
    "code": "95101"
  },
  "ATLTX": {
    "timezone": "Europe/Vienna",
    "coordinates": [
      15.7733196,
      48.0337274
    ],
    "name": "Hainfeld",
    "city": "Hainfeld",
    "province": "Niederösterreich",
    "country": "Austria",
    "alias": [],
    "regions": [],
    "unlocs": [
      "ATLTX"
    ],
    "code": "60200"
  },
  "AUABP": {
    "name": "Abbot Point",
    "city": "Abbot Point",
    "province": "Queensland",
    "country": "Australia",
    "alias": [],
    "regions": [],
    "coordinates": [
      148.0846726,
      -19.9078861
    ],
    "timezone": "Australia/Brisbane",
    "unlocs": [
      "AUABP"
    ],
    "code": "60200"
  },
  "AUADL": {
    "name": "Adelaide",
    "coordinates": [
      138.58,
      -34.92
    ],
    "city": "Adelaide",
    "province": "South Australia",
    "country": "Australia",
    "alias": [],
    "regions": [],
    "timezone": "Australia/Adelaide",
    "unlocs": [
      "AUADL"
    ],
    "code": "60201"
  },
  "AUARD": {
    "name": "Ardrossan",
    "city": "Ardrossan",
    "province": "South Australia",
    "country": "Australia",
    "alias": [],
    "regions": [],
    "coordinates": [
      137.9174283,
      -34.4230702
    ],
    "timezone": "Australia/Adelaide",
    "unlocs": [
      "AUARD"
    ],
    "code": "60276"
  },
  "AUBBY": {
    "timezone": "Australia/Perth",
    "coordinates": [
      119.379376,
      -34.3926208
    ],
    "name": "Bremer Bay",
    "city": "Bremer Bay",
    "province": "Western Australia",
    "country": "Australia",
    "alias": [],
    "regions": [],
    "unlocs": [
      "AUBBY"
    ],
    "code": "60200"
  },
  "AUBEL": {
    "name": "Bell Bay",
    "city": "Bell Bay",
    "province": "Tasmania",
    "country": "Australia",
    "alias": [],
    "regions": [],
    "coordinates": [
      146.8635558,
      -41.1154147
    ],
    "timezone": "Australia/Melbourne",
    "unlocs": [
      "AUBEL"
    ],
    "code": "60290"
  },
  "AUBNE": {
    "name": "Brisbane",
    "coordinates": [
      153.02,
      -27.47
    ],
    "city": "Brisbane",
    "province": "Queensland",
    "country": "Australia",
    "alias": [],
    "regions": [],
    "timezone": "Australia/Brisbane",
    "unlocs": [
      "AUBNE"
    ],
    "code": "60210"
  },
  "AUBOO": {
    "name": "Booby Island",
    "coordinates": [
      141.92,
      -10.6
    ],
    "city": "Booby Island",
    "province": "Queensland",
    "country": "Australia",
    "alias": [],
    "regions": [],
    "timezone": "Australia/Brisbane",
    "unlocs": [
      "AUBOO"
    ],
    "code": "60200"
  },
  "AUBWT": {
    "name": "Burnie",
    "city": "Burnie",
    "province": "Tasmania",
    "country": "Australia",
    "alias": [],
    "regions": [],
    "coordinates": [
      145.9068513,
      -41.0524649
    ],
    "timezone": "Australia/Melbourne",
    "unlocs": [
      "AUBWT"
    ],
    "code": "60291"
  },
  "AUCHT": {
    "timezone": "Australia/Perth",
    "coordinates": [
      116.1010108,
      -31.4700549
    ],
    "name": "Chittering",
    "city": "Chittering",
    "province": "Western Australia",
    "country": "Australia",
    "alias": [],
    "regions": [],
    "unlocs": [
      "AUCHT"
    ],
    "code": "60200"
  },
  "AUCNS": {
    "name": "Cairns",
    "city": "Cairns",
    "province": "Queensland",
    "country": "Australia",
    "alias": [],
    "regions": [],
    "coordinates": [
      145.7708595,
      -16.9203338
    ],
    "timezone": "Australia/Brisbane",
    "unlocs": [
      "AUCNS"
    ],
    "code": "60200"
  },
  "AUDPO": {
    "name": "Devonport",
    "city": "Devonport",
    "province": "Tasmania",
    "country": "Australia",
    "alias": [],
    "regions": [],
    "coordinates": [
      146.3609534,
      -41.1783532
    ],
    "timezone": "Australia/Melbourne",
    "unlocs": [
      "AUDPO"
    ],
    "code": "60299"
  },
  "AUDRW": {
    "name": "Darwin",
    "coordinates": [
      130.83,
      -12.45
    ],
    "city": "Darwin",
    "province": "Northern Territory",
    "country": "Australia",
    "alias": [],
    "regions": [],
    "timezone": "Australia/Darwin",
    "unlocs": [
      "AUDRW"
    ],
    "code": "60220"
  },
  "AUFRE": {
    "name": "Fremantle",
    "city": "Fremantle",
    "province": "Western Australia",
    "country": "Australia",
    "alias": [],
    "regions": [],
    "coordinates": [
      115.7471797,
      -32.0560399
    ],
    "timezone": "Australia/Perth",
    "unlocs": [
      "AUFRE"
    ],
    "code": "60222"
  },
  "AUGLT": {
    "name": "Gladstone",
    "city": "Gladstone",
    "province": "Queensland",
    "country": "Australia",
    "alias": [],
    "regions": [],
    "coordinates": [
      151.2597998,
      -23.8487083
    ],
    "timezone": "Australia/Brisbane",
    "unlocs": [
      "AUGLT"
    ],
    "code": "60231"
  },
  "AUGOV": {
    "name": "Gove",
    "city": "Gove",
    "province": "Northern Territory",
    "country": "Australia",
    "alias": [],
    "regions": [],
    "coordinates": [
      130.8717878,
      -12.3780716
    ],
    "timezone": "Australia/Darwin",
    "unlocs": [
      "AUGOV"
    ],
    "code": "60227"
  },
  "AUHBA": {
    "name": "Hobart",
    "coordinates": [
      147.3,
      -42.87
    ],
    "city": "Hobart",
    "province": "Tasmania",
    "country": "Australia",
    "alias": [],
    "regions": [],
    "timezone": "Australia/Melbourne",
    "unlocs": [
      "AUHBA"
    ],
    "code": "60295"
  },
  "AUHPT": {
    "name": "Hay Point",
    "city": "Hay Point",
    "province": "Queensland",
    "country": "Australia",
    "alias": [],
    "regions": [],
    "coordinates": [
      149.2921629,
      -21.3055785
    ],
    "timezone": "Australia/Brisbane",
    "unlocs": [
      "AUHPT"
    ],
    "code": "60212"
  },
  "AULST": {
    "name": "Launceston",
    "city": "Launceston",
    "province": "Tasmania",
    "country": "Australia",
    "alias": [],
    "regions": [],
    "coordinates": [
      147.1124679,
      -41.4261807
    ],
    "timezone": "Australia/Melbourne",
    "unlocs": [
      "AULST"
    ],
    "code": "60297"
  },
  "AUMEL": {
    "name": "Melbourne",
    "coordinates": [
      144.97,
      -37.82
    ],
    "city": "Melbourne",
    "province": "Victoria",
    "country": "Australia",
    "alias": [],
    "regions": [],
    "timezone": "Australia/Hobart",
    "unlocs": [
      "AUMEL"
    ],
    "code": "60237"
  },
  "AUNLK": {
    "timezone": "Australia/Melbourne",
    "coordinates": [
      147.0636496,
      -42.7806827
    ],
    "name": "New Norfolk",
    "city": "New Norfolk",
    "province": "Tasmania",
    "country": "Australia",
    "alias": [],
    "regions": [],
    "unlocs": [
      "AUNLK"
    ],
    "code": "60200"
  },
  "AUNTL": {
    "name": "Newcastle",
    "city": "Newcastle",
    "province": "New South Wales",
    "country": "Australia",
    "alias": [],
    "regions": [],
    "coordinates": [
      151.7789205,
      -32.926689
    ],
    "timezone": "Australia/Sydney",
    "unlocs": [
      "AUNTL"
    ],
    "code": "60240"
  },
  "AUPAE": {
    "name": "Port Adelaide",
    "city": "Port Adelaide",
    "province": "South Australia",
    "country": "Australia",
    "alias": [],
    "regions": [],
    "coordinates": [
      138.5073616,
      -34.8477448
    ],
    "timezone": "Australia/Adelaide",
    "unlocs": [
      "AUPAE"
    ],
    "code": "60201"
  },
  "AUPHE": {
    "name": "Port Hedland",
    "city": "Port Hedland",
    "province": "Western Australia",
    "country": "Australia",
    "alias": [],
    "regions": [],
    "coordinates": [
      118.5752577,
      -20.3116266
    ],
    "timezone": "Australia/Perth",
    "unlocs": [
      "AUPHE"
    ],
    "code": "60219"
  },
  "AUPKL": {
    "name": "Port Kembla",
    "city": "Port Kembla",
    "province": "New South Wales",
    "country": "Australia",
    "alias": [],
    "regions": [],
    "coordinates": [
      150.900495,
      -34.4800735
    ],
    "timezone": "Australia/Sydney",
    "unlocs": [
      "AUPKL"
    ],
    "code": "60252"
  },
  "AUSYD": {
    "name": "Sydney",
    "coordinates": [
      151.2,
      -33.85
    ],
    "city": "Sydney",
    "province": "New South Wales",
    "country": "Australia",
    "alias": [],
    "regions": [],
    "timezone": "Australia/Sydney",
    "unlocs": [
      "AUSYD"
    ],
    "code": "60267"
  },
  "AUTSV": {
    "name": "Townsville",
    "city": "Townsville",
    "province": "Queensland",
    "country": "Australia",
    "alias": [],
    "regions": [],
    "coordinates": [
      146.8178707,
      -19.2576268
    ],
    "timezone": "Australia/Brisbane",
    "unlocs": [
      "AUTSV"
    ],
    "code": "60273"
  },
  "AUWEI": {
    "name": "Weipa",
    "city": "Weipa",
    "province": "Queensland",
    "country": "Australia",
    "alias": [],
    "regions": [],
    "coordinates": [
      141.8384064,
      -12.6591475
    ],
    "timezone": "Australia/Brisbane",
    "unlocs": [
      "AUWEI"
    ],
    "code": "60275"
  },
  "AWAUA": {
    "name": "Aruba",
    "coordinates": [
      -69.97,
      12.5
    ],
    "city": "Aruba",
    "country": "Aruba",
    "alias": [],
    "regions": [],
    "timezone": "America/Aruba",
    "unlocs": [
      "AWAUA"
    ],
    "code": "27703"
  },
  "AWORJ": {
    "name": "Oranjestad",
    "city": "Oranjestad",
    "country": "Aruba",
    "alias": [],
    "regions": [],
    "coordinates": [
      -70.0086306,
      12.5092044
    ],
    "timezone": "America/Aruba",
    "unlocs": [
      "AWORJ"
    ],
    "code": "27701"
  },
  "AZBAK": {
    "name": "Baku",
    "city": "Baku",
    "country": "Azerbaijan",
    "alias": [],
    "regions": [],
    "coordinates": [
      49.8670924,
      40.40926169999999
    ],
    "timezone": "Asia/Baku",
    "unlocs": [
      "AZBAK"
    ]
  },
  "BBBGI": {
    "name": "Bridgetown",
    "city": "Bridgetown",
    "country": "Barbados",
    "alias": [],
    "regions": [],
    "coordinates": [
      -59.59880889999999,
      13.1132219
    ],
    "province": "Saint Michael",
    "timezone": "America/Barbados",
    "unlocs": [
      "BBBGI"
    ],
    "code": "27201"
  },
  "BDCGP": {
    "name": "Chittagong",
    "city": "Chittagong",
    "country": "Bangladesh",
    "alias": [],
    "regions": [],
    "coordinates": [
      91.8123324,
      22.3475365
    ],
    "province": "Chittagong Division",
    "timezone": "Asia/Dhaka",
    "unlocs": [
      "BDCGP"
    ],
    "code": "53827"
  },
  "BDCHL": {
    "name": "Chalna",
    "city": "Chalna",
    "country": "Bangladesh",
    "alias": [],
    "regions": [],
    "coordinates": [
      89.5139693,
      22.6036965
    ],
    "province": "Khulna Division",
    "timezone": "Asia/Dhaka",
    "unlocs": [
      "BDCHL"
    ],
    "code": "53820"
  },
  "BDDAC": {
    "name": "Dhaka",
    "city": "Dhaka",
    "country": "Bangladesh",
    "alias": [],
    "regions": [],
    "coordinates": [
      90.4125181,
      23.810332
    ],
    "province": "Dhaka Division",
    "timezone": "Asia/Dhaka",
    "unlocs": [
      "BDDAC"
    ],
    "code": "53800"
  },
  "BDMGL": {
    "name": "Mongla",
    "city": "Mongla",
    "country": "Bangladesh",
    "alias": [],
    "regions": [],
    "coordinates": [
      89.6016171,
      22.4942196
    ],
    "province": "Khulna Division",
    "timezone": "Asia/Dhaka",
    "unlocs": [
      "BDMGL"
    ],
    "code": "53800"
  },
  "BEANR": {
    "name": "Antwerpen",
    "coordinates": [
      4.42,
      51.22
    ],
    "city": "Antwerpen",
    "province": "Antwerpen",
    "country": "Belgium",
    "alias": [],
    "regions": [],
    "timezone": "Europe/Brussels",
    "unlocs": [
      "BEANR"
    ],
    "code": "42305"
  },
  "BEBSU": {
    "timezone": "Europe/Brussels",
    "coordinates": [
      3.4072881,
      50.7481174
    ],
    "name": "Bossuit",
    "city": "Bossuit",
    "province": "West-Vlaanderen",
    "country": "Belgium",
    "alias": [],
    "regions": [],
    "unlocs": [
      "BEBSU"
    ],
    "code": "42300"
  },
  "BEDEL": {
    "timezone": "Europe/Brussels",
    "coordinates": [
      4.264974899999999,
      51.31059759999999
    ],
    "name": "Doel",
    "city": "Doel",
    "province": "Oost-Vlaanderen",
    "country": "Belgium",
    "alias": [],
    "regions": [],
    "unlocs": [
      "BEDEL"
    ],
    "code": "42300"
  },
  "BEGNE": {
    "name": "Gent (Ghent)",
    "coordinates": [
      3.72,
      51.05
    ],
    "city": "Gent (Ghent)",
    "province": "Oost-Vlaanderen",
    "country": "Belgium",
    "alias": [],
    "regions": [],
    "timezone": "Europe/Brussels",
    "unlocs": [
      "BEGNE"
    ],
    "code": "42331"
  },
  "BEOST": {
    "name": "Oostende (Ostend)",
    "coordinates": [
      2.92,
      51.2
    ],
    "city": "Oostende (Ostend)",
    "province": "West-Vlaanderen",
    "country": "Belgium",
    "alias": [],
    "regions": [],
    "timezone": "Europe/Brussels",
    "unlocs": [
      "BEOST"
    ],
    "code": "42351"
  },
  "BEZEE": {
    "name": "Zeebrugge",
    "coordinates": [
      3.2,
      51.33
    ],
    "city": "Zeebrugge",
    "province": "West-Vlaanderen",
    "country": "Belgium",
    "alias": [],
    "regions": [],
    "timezone": "Europe/Brussels",
    "unlocs": [
      "BEZEE"
    ],
    "code": "42381"
  },
  "BFOUA": {
    "name": "Ouagadougou",
    "city": "Ouagadougou",
    "country": "Burkina Faso",
    "alias": [],
    "regions": [],
    "coordinates": [
      -1.5196603,
      12.3714277
    ],
    "province": "Centre",
    "timezone": "Africa/Ouagadougou",
    "unlocs": [
      "BFOUA"
    ]
  },
  "BGBOJ": {
    "name": "Burgas",
    "city": "Burgas",
    "country": "Bulgaria",
    "alias": [],
    "regions": [],
    "coordinates": [
      27.4626361,
      42.50479259999999
    ],
    "province": "Burgas",
    "timezone": "Europe/Sofia",
    "unlocs": [
      "BGBOJ"
    ],
    "code": "48702"
  },
  "BGVAR": {
    "name": "Varna",
    "city": "Varna",
    "country": "Bulgaria",
    "alias": [],
    "regions": [],
    "coordinates": [
      27.9147333,
      43.2140504
    ],
    "province": "Varna",
    "timezone": "Europe/Sofia",
    "unlocs": [
      "BGVAR"
    ],
    "code": "48707"
  },
  "BHAHD": {
    "country": "Bahrain",
    "province": "Bahrain",
    "city": "Al HIdd",
    "code": "52500",
    "name": "Al Hidd",
    "alias": [],
    "regions": [],
    "unlocs": [
      "BHAHD"
    ]
  },
  "BHBAH": {
    "name": "Bahrain",
    "coordinates": [
      50.63,
      26.27
    ],
    "city": "Bahrain",
    "province": "Al Muharraq",
    "country": "Bahrain",
    "alias": [],
    "regions": [],
    "timezone": "Asia/Bahrain",
    "unlocs": [
      "BHBAH"
    ],
    "code": "52500"
  },
  "BHKBS": {
    "name": "Khalifa Bin Salman Port",
    "coordinates": [
      50.62,
      26.2
    ],
    "city": "Khalifa Bin Salman",
    "province": "Al Muharraq",
    "country": "Bahrain",
    "alias": [],
    "regions": [],
    "timezone": "Asia/Bahrain",
    "unlocs": [
      "BHKBS"
    ],
    "code": "52500"
  },
  "BHMAN": {
    "name": "Manama",
    "city": "Manama",
    "country": "Bahrain",
    "alias": [],
    "regions": [],
    "coordinates": [
      50.5860497,
      26.2285161
    ],
    "timezone": "Asia/Bahrain",
    "unlocs": [
      "BHMAN"
    ],
    "code": "52502"
  },
  "BHSIT": {
    "name": "Sitrah",
    "coordinates": [
      50.62,
      26.13
    ],
    "city": "Sitrah",
    "province": "Al Wustá",
    "country": "Bahrain",
    "alias": [],
    "regions": [],
    "timezone": "Asia/Bahrain",
    "unlocs": [
      "BHSIT"
    ],
    "code": "52500"
  },
  "BJCOO": {
    "name": "Cotonou",
    "city": "Cotonou",
    "country": "Benin",
    "alias": [],
    "regions": [],
    "coordinates": [
      2.3912362,
      6.3702928
    ],
    "province": "Littoral",
    "timezone": "Africa/Porto-Novo",
    "unlocs": [
      "BJCOO"
    ],
    "code": "76101"
  },
  "BMBDA": {
    "name": "Hamilton",
    "city": "Hamilton",
    "country": "Bermuda",
    "alias": [],
    "regions": [],
    "coordinates": [
      -64.781375,
      32.294816
    ],
    "province": "Hamilton",
    "timezone": "Atlantic/Bermuda",
    "unlocs": [
      "BMBDA"
    ],
    "code": "23201"
  },
  "BMSOU": {
    "timezone": "Europe/London",
    "coordinates": [
      -1.4043509,
      50.90970040000001
    ],
    "name": "Southampton",
    "city": "Southampton",
    "province": "Zou",
    "country": "Bermuda",
    "alias": [],
    "regions": [],
    "unlocs": [
      "BMSOU"
    ],
    "code": "23299"
  },
  "BNBWN": {
    "name": "Bandar Seri Begawan",
    "coordinates": [
      114.93,
      4.88
    ],
    "city": "Bandar Seri Begawan",
    "country": "Brunei Darussalam",
    "alias": [],
    "regions": [],
    "province": "Brunei-Muara",
    "timezone": "Asia/Brunei",
    "unlocs": [
      "BNBWN"
    ],
    "code": "56100"
  },
  "BNKUB": {
    "name": "Kuala Belait",
    "city": "Kuala Belait",
    "country": "Brunei Darussalam",
    "alias": [],
    "regions": [],
    "coordinates": [
      114.2212174,
      4.5831986
    ],
    "province": "Belait",
    "timezone": "Asia/Brunei",
    "unlocs": [
      "BNKUB"
    ],
    "code": "56100"
  },
  "BNMUA": {
    "name": "Muara",
    "city": "Muara",
    "country": "Brunei Darussalam",
    "alias": [],
    "regions": [],
    "coordinates": [
      115.0732883,
      5.0333206
    ],
    "province": "Brunei-Muara",
    "timezone": "Asia/Brunei",
    "unlocs": [
      "BNMUA"
    ],
    "code": "56151"
  },
  "BOPBU": {
    "timezone": "America/Campo_Grande",
    "coordinates": [
      -57.96666699999999,
      -20.033333
    ],
    "name": "Puerto Busch",
    "city": "Puerto Busch",
    "province": "Santa Cruz",
    "country": "Bolivia, Plurinational State of",
    "alias": [],
    "regions": [],
    "unlocs": [
      "BOPBU"
    ],
    "code": "23299"
  },
  "BOSRZ": {
    "name": "Santa Cruz",
    "coordinates": [
      -63.18,
      -17.78
    ],
    "city": "Santa Cruz",
    "province": "La Paz",
    "country": "Bolivia, Plurinational State of",
    "alias": [],
    "regions": [],
    "timezone": "America/La_Paz",
    "unlocs": [
      "BOSRZ"
    ],
    "code": "23299"
  },
  "BRARB": {
    "name": "Aratu",
    "city": "Aratu",
    "province": "Bahia",
    "country": "Brazil",
    "alias": [],
    "regions": [],
    "coordinates": [
      -38.4560755,
      -12.7855854
    ],
    "timezone": "America/Fortaleza",
    "unlocs": [
      "BRARB"
    ],
    "code": "35115"
  },
  "BRARE": {
    "name": "Areia Branca",
    "coordinates": [
      -37.17,
      -4.98
    ],
    "city": "Areia Branca",
    "province": "Rio Grande do Norte",
    "country": "Brazil",
    "alias": [],
    "regions": [],
    "timezone": "America/Fortaleza",
    "unlocs": [
      "BRARE"
    ],
    "code": "35198"
  },
  "BRBEL": {
    "name": "Belem",
    "coordinates": [
      -48.5,
      -1.45
    ],
    "city": "Belem",
    "province": "Pará",
    "country": "Brazil",
    "alias": [],
    "regions": [],
    "timezone": "America/Boa_Vista",
    "unlocs": [
      "BRBEL"
    ],
    "code": "35121"
  },
  "BRCDO": {
    "name": "Cabedelo",
    "city": "Cabedelo",
    "province": "Paraíba",
    "country": "Brazil",
    "alias": [],
    "regions": [],
    "coordinates": [
      -34.8287221,
      -6.987721499999999
    ],
    "timezone": "America/Fortaleza",
    "unlocs": [
      "BRCDO"
    ],
    "code": "35127"
  },
  "BRFNO": {
    "name": "Forno",
    "city": "Forno",
    "province": "Rio de Janeiro",
    "country": "Brazil",
    "alias": [],
    "regions": [],
    "coordinates": [
      -41.8807698,
      -22.7583647
    ],
    "timezone": "America/Sao_Paulo",
    "unlocs": [
      "BRFNO"
    ],
    "code": "35199"
  },
  "BRFOR": {
    "name": "Fortaleza",
    "city": "Fortaleza",
    "province": "Ceará",
    "country": "Brazil",
    "alias": [],
    "regions": [],
    "coordinates": [
      -38.5266704,
      -3.7318616
    ],
    "timezone": "America/Fortaleza",
    "unlocs": [
      "BRFOR"
    ],
    "code": "35133"
  },
  "BRIBB": {
    "name": "Imbituba",
    "city": "Imbituba",
    "province": "Santa Catarina",
    "country": "Brazil",
    "alias": [],
    "regions": [],
    "coordinates": [
      -48.6691286,
      -28.227627
    ],
    "timezone": "America/Sao_Paulo",
    "unlocs": [
      "BRIBB"
    ],
    "code": "35178"
  },
  "BRIGI": {
    "name": "Itaguai",
    "coordinates": [
      -43.77,
      -22.87
    ],
    "city": "Itaguaí",
    "province": "Rio de Janeiro",
    "country": "Brazil",
    "alias": [],
    "regions": [],
    "timezone": "America/Sao_Paulo",
    "unlocs": [
      "BRIGI"
    ],
    "code": "35185"
  },
  "BRIOA": {
    "name": "Itapoa",
    "coordinates": [
      -48.6,
      -26.12
    ],
    "city": "Itapoá",
    "province": "Santa Catarina",
    "country": "Brazil",
    "alias": [],
    "regions": [],
    "timezone": "America/Sao_Paulo",
    "unlocs": [
      "BRIOA"
    ],
    "code": "35199"
  },
  "BRIOS": {
    "name": "Ilheus",
    "city": "Ilheus",
    "province": "Bahia",
    "country": "Brazil",
    "alias": [],
    "regions": [],
    "coordinates": [
      -39.0463797,
      -14.7935051
    ],
    "timezone": "America/Fortaleza",
    "unlocs": [
      "BRIOS"
    ],
    "code": "35137"
  },
  "BRIRO": {
    "timezone": "America/Sao_Paulo",
    "coordinates": [
      -43.8030567,
      -20.2530617
    ],
    "name": "Itabirito",
    "city": "Itabirito",
    "province": "Minas Gerais",
    "country": "Brazil",
    "alias": [],
    "regions": [],
    "unlocs": [
      "BRIRO"
    ],
    "code": "35199"
  },
  "BRITJ": {
    "name": "Itajai",
    "city": "Itajai",
    "province": "Santa Catarina",
    "country": "Brazil",
    "alias": [],
    "regions": [],
    "coordinates": [
      -48.6709514,
      -26.9105964
    ],
    "timezone": "America/Sao_Paulo",
    "unlocs": [
      "BRITJ"
    ],
    "code": "35138"
  },
  "BRITQ": {
    "name": "Itaqui",
    "city": "Itaqui",
    "province": "Rio Grande do Sul",
    "country": "Brazil",
    "alias": [],
    "regions": [],
    "coordinates": [
      -56.5481122,
      -29.1294007
    ],
    "timezone": "America/Sao_Paulo",
    "unlocs": [
      "BRITQ"
    ],
    "code": "35135"
  },
  "BRITZ": {
    "timezone": "America/Sao_Paulo",
    "coordinates": [
      -40.8310577,
      -21.0100062
    ],
    "name": "Itapemirim",
    "city": "Itapemirim",
    "province": "Espírito Santo",
    "country": "Brazil",
    "alias": [],
    "regions": [],
    "unlocs": [
      "BRITZ"
    ],
    "code": "35199"
  },
  "BRMAO": {
    "name": "Manaus",
    "city": "Manaus",
    "province": "Amazonas",
    "country": "Brazil",
    "alias": [],
    "regions": [],
    "coordinates": [
      -60.0217314,
      -3.1190275
    ],
    "timezone": "Europe/Stockholm",
    "unlocs": [
      "BRMAO"
    ],
    "code": "35144"
  },
  "BRMCZ": {
    "name": "Maceio",
    "coordinates": [
      -35.72,
      -9.67
    ],
    "city": "Maceió",
    "province": "Alagoas",
    "country": "Brazil",
    "alias": [],
    "regions": [],
    "timezone": "America/Fortaleza",
    "unlocs": [
      "BRMCZ"
    ],
    "code": "35141"
  },
  "BRNAT": {
    "name": "Natal",
    "city": "Natal",
    "province": "Rio Grande do Norte",
    "country": "Brazil",
    "alias": [],
    "regions": [],
    "coordinates": [
      -35.200916,
      -5.7792569
    ],
    "timezone": "America/Fortaleza",
    "unlocs": [
      "BRNAT"
    ],
    "code": "35157"
  },
  "BRNVT": {
    "name": "Navegantes",
    "coordinates": [
      -48.65,
      -26.9
    ],
    "city": "Navegantes",
    "province": "Santa Catarina",
    "country": "Brazil",
    "alias": [],
    "regions": [],
    "timezone": "America/Sao_Paulo",
    "unlocs": [
      "BRNVT"
    ],
    "code": "35136"
  },
  "BRPCL": {
    "name": "Portocel",
    "city": "Portocel",
    "province": "Espírito Santo",
    "country": "Brazil",
    "alias": [],
    "regions": [],
    "coordinates": [
      -40.3088626,
      -19.1834229
    ],
    "timezone": "America/Sao_Paulo",
    "unlocs": [
      "BRPCL"
    ],
    "code": "35199"
  },
  "BRPEC": {
    "name": "Pecem",
    "coordinates": [
      -38.87,
      -3.52
    ],
    "city": "Pecém",
    "province": "Ceará",
    "country": "Brazil",
    "alias": [],
    "regions": [],
    "timezone": "America/Fortaleza",
    "unlocs": [
      "BRPEC"
    ],
    "code": "35120"
  },
  "BRPNG": {
    "name": "Paranagua",
    "coordinates": [
      -48.5,
      -25.52
    ],
    "city": "Paranaguá",
    "province": "Paraná",
    "country": "Brazil",
    "alias": [],
    "regions": [],
    "timezone": "America/Sao_Paulo",
    "unlocs": [
      "BRPNG"
    ],
    "code": "35159"
  },
  "BRPNN": {
    "timezone": "America/Fortaleza",
    "coordinates": [
      -47.8759329,
      -12.6162809
    ],
    "name": "Paranã",
    "city": "Paranã",
    "province": "Tocantins",
    "country": "Brazil",
    "alias": [],
    "regions": [],
    "unlocs": [
      "BRPNN"
    ],
    "code": "35199"
  },
  "BRPOA": {
    "name": "Porto Alegre",
    "city": "Pôrto Alegre",
    "province": "Rio Grande do Sul",
    "country": "Brazil",
    "alias": [],
    "regions": [],
    "coordinates": [
      -51.2176584,
      -30.0346471
    ],
    "timezone": "America/Sao_Paulo",
    "unlocs": [
      "BRPOA"
    ],
    "code": "35167"
  },
  "BRREC": {
    "name": "Recife",
    "city": "Recife",
    "province": "Pernambuco",
    "country": "Brazil",
    "alias": [],
    "regions": [],
    "coordinates": [
      -34.8828969,
      -8.0578381
    ],
    "timezone": "America/Fortaleza",
    "unlocs": [
      "BRREC"
    ],
    "code": "35169"
  },
  "BRRIG": {
    "name": "Rio Grande",
    "city": "Rio Grande",
    "province": "Rio Grande do Sul",
    "country": "Brazil",
    "alias": [],
    "regions": [],
    "coordinates": [
      -52.1075802,
      -32.0353776
    ],
    "timezone": "America/Sao_Paulo",
    "unlocs": [
      "BRRIG"
    ],
    "code": "35173"
  },
  "BRRIO": {
    "name": "Rio de Janeiro",
    "city": "Rio de Janeiro",
    "province": "Rio de Janeiro",
    "country": "Brazil",
    "alias": [],
    "regions": [],
    "coordinates": [
      -43.1728965,
      -22.9068467
    ],
    "timezone": "America/Sao_Paulo",
    "unlocs": [
      "BRRIO"
    ],
    "code": "35171"
  },
  "BRSAL": {
    "timezone": "America/Sao_Paulo",
    "coordinates": [
      -49.9836057,
      -22.8898683
    ],
    "name": "Salto Grande",
    "city": "Salto Grande",
    "province": "São Paulo",
    "country": "Brazil",
    "alias": [],
    "regions": [],
    "unlocs": [
      "BRSAL"
    ],
    "code": "35199"
  },
  "BRSFS": {
    "name": "Sao Francisco do Sul",
    "city": "São Francisco do Sul",
    "province": "Santa Catarina",
    "country": "Brazil",
    "alias": [],
    "regions": [],
    "coordinates": [
      -48.6348454,
      -26.2584141
    ],
    "timezone": "America/Sao_Paulo",
    "unlocs": [
      "BRSFS"
    ],
    "code": "35179"
  },
  "BRSPB": {
    "name": "Porto de Itaguai",
    "coordinates": [
      -43.82,
      -22.92
    ],
    "city": "Porto de Itaguaí",
    "province": "Rio de Janeiro",
    "country": "Brazil",
    "alias": [],
    "regions": [],
    "timezone": "America/Sao_Paulo",
    "unlocs": [
      "BRSPB"
    ],
    "code": "35185"
  },
  "BRSSA": {
    "name": "Salvador",
    "city": "Salvador",
    "province": "Bahia",
    "country": "Brazil",
    "alias": [],
    "regions": [],
    "coordinates": [
      -38.502304,
      -12.9730401
    ],
    "timezone": "America/Fortaleza",
    "unlocs": [
      "BRSSA"
    ],
    "code": "35181"
  },
  "BRSSO": {
    "name": "Sao Sebastiao",
    "city": "São Sebastião",
    "province": "São Paulo",
    "country": "Brazil",
    "alias": [],
    "regions": [],
    "coordinates": [
      -45.4016534,
      -23.8063468
    ],
    "timezone": "America/Sao_Paulo",
    "unlocs": [
      "BRSSO"
    ],
    "code": "35175"
  },
  "BRSSZ": {
    "name": "Santos",
    "coordinates": [
      -46.33,
      -23.95
    ],
    "city": "Santos",
    "province": "São Paulo",
    "country": "Brazil",
    "alias": [],
    "regions": [],
    "timezone": "America/Sao_Paulo",
    "unlocs": [
      "BRSSZ"
    ],
    "code": "35177"
  },
  "BRSTM": {
    "name": "Santarem",
    "city": "Santarem",
    "province": "Pará",
    "country": "Brazil",
    "alias": [],
    "regions": [],
    "coordinates": [
      -54.7009228,
      -2.4506291
    ],
    "timezone": "America/Boa_Vista",
    "unlocs": [
      "BRSTM"
    ],
    "code": "35198"
  },
  "BRSUA": {
    "name": "Suape",
    "city": "Suape",
    "province": "Pernambuco",
    "country": "Brazil",
    "alias": [],
    "regions": [],
    "coordinates": [
      -34.9575528,
      -8.3536618
    ],
    "timezone": "America/Fortaleza",
    "unlocs": [
      "BRSUA"
    ],
    "code": "35170"
  },
  "BRVDC": {
    "name": "Vitoria da Conquista",
    "coordinates": [
      -40.85,
      -14.85
    ],
    "city": "Vitória da Conquista",
    "province": "Bahia",
    "country": "Brazil",
    "alias": [],
    "regions": [],
    "timezone": "America/Fortaleza",
    "unlocs": [
      "BRVDC"
    ],
    "code": "35195"
  },
  "BRVIC": {
    "name": "Vila do Conde",
    "coordinates": [
      -34.9,
      -7.27
    ],
    "city": "Vila do Conde",
    "province": "Paraíba",
    "country": "Brazil",
    "alias": [],
    "regions": [],
    "timezone": "America/Fortaleza",
    "unlocs": [
      "BRVIC"
    ],
    "code": "35121"
  },
  "BRVIX": {
    "name": "Vitoria",
    "city": "Vitoria",
    "province": "Espírito Santo",
    "country": "Brazil",
    "alias": [],
    "regions": [],
    "coordinates": [
      -40.2957768,
      -20.2976178
    ],
    "timezone": "America/Sao_Paulo",
    "unlocs": [
      "BRVIX"
    ],
    "code": "35195"
  },
  "BRVLC": {
    "name": "Vila do Conde",
    "coordinates": [
      -48.75,
      -1.53
    ],
    "city": "Vila do Conde",
    "province": "Pará",
    "country": "Brazil",
    "alias": [],
    "regions": [],
    "unlocs": [
      "BRVLC"
    ],
    "code": "35121"
  },
  "BSFPO": {
    "name": "Freeport, Grand Bahama",
    "city": "Freeport, Grand Bahama",
    "country": "Bahamas",
    "alias": [],
    "regions": [],
    "coordinates": [
      -78.64554749999999,
      26.5416093
    ],
    "province": "Freeport",
    "timezone": "America/Nassau",
    "unlocs": [
      "BSFPO"
    ],
    "code": "23645"
  },
  "BSNAS": {
    "name": "Nassau",
    "coordinates": [
      -77.35,
      25.08
    ],
    "city": "Nassau",
    "country": "Bahamas",
    "alias": [],
    "regions": [],
    "province": "New Providence",
    "timezone": "America/Nassau",
    "unlocs": [
      "BSNAS"
    ],
    "code": "23661"
  },
  "BYMSQ": {
    "name": "Minsk",
    "city": "Minsk",
    "country": "Belarus",
    "alias": [],
    "regions": [],
    "coordinates": [
      27.5615244,
      53.90453979999999
    ],
    "timezone": "Europe/Minsk",
    "unlocs": [
      "BYMSQ"
    ]
  },
  "BZBZE": {
    "name": "Belize City",
    "city": "Belize City",
    "country": "Belize",
    "alias": [],
    "regions": [],
    "coordinates": [
      -88.1962133,
      17.5045661
    ],
    "province": "Belize",
    "timezone": "America/Belize",
    "unlocs": [
      "BZBZE"
    ],
    "code": "20801"
  },
  "CABAT": {
    "name": "Bathurst",
    "city": "Bathurst",
    "province": "New Brunswick",
    "country": "Canada",
    "alias": [],
    "regions": [],
    "coordinates": [
      -65.6513358,
      47.6183507
    ],
    "timezone": "America/Halifax",
    "unlocs": [
      "CABAT"
    ],
    "code": "13458"
  },
  "CABCK": {
    "name": "Brockville",
    "city": "Brockville",
    "province": "Ontario",
    "country": "Canada",
    "alias": [],
    "regions": [],
    "coordinates": [
      -75.68428580000001,
      44.5895244
    ],
    "timezone": "America/Toronto",
    "unlocs": [
      "CABCK"
    ],
    "code": "1694"
  },
  "CABDU": {
    "name": "Baie d'Urfe",
    "coordinates": [
      -73.92,
      45.4
    ],
    "city": "Baie d'Urfé",
    "province": "Quebec",
    "country": "Canada",
    "alias": [],
    "regions": [],
    "timezone": "America/Toronto",
    "unlocs": [
      "CABDU"
    ],
    "code": "13400"
  },
  "CABEC": {
    "name": "Becancour",
    "coordinates": [
      -72.43,
      46.33
    ],
    "city": "Bécancour",
    "province": "Quebec",
    "country": "Canada",
    "alias": [],
    "regions": [],
    "timezone": "America/Toronto",
    "unlocs": [
      "CABEC"
    ],
    "code": "13441"
  },
  "CABJO": {
    "name": "Baie-Johan-Beetz",
    "coordinates": [
      -62.83,
      50.3
    ],
    "city": "Baie-Johan-Beetz",
    "province": "Quebec",
    "country": "Canada",
    "alias": [],
    "regions": [],
    "timezone": "America/Toronto",
    "unlocs": [
      "CABJO"
    ],
    "code": "13400"
  },
  "CABRL": {
    "name": "Burlington",
    "city": "Burlington",
    "province": "Ontario",
    "country": "Canada",
    "alias": [],
    "regions": [],
    "coordinates": [
      -79.7990319,
      43.3255196
    ],
    "timezone": "America/Toronto",
    "unlocs": [
      "CABRL"
    ],
    "code": "9000"
  },
  "CACAL": {
    "name": "Calgary",
    "coordinates": [
      -114.07,
      51.03
    ],
    "city": "Calgary",
    "province": "Alberta",
    "country": "Canada",
    "alias": [],
    "regions": [],
    "timezone": "America/Edmonton",
    "unlocs": [
      "CACAL"
    ],
    "code": "12200"
  },
  "CACBK": {
    "name": "Corner Brook",
    "coordinates": [
      -57.93,
      48.95
    ],
    "city": "Corner Brook",
    "province": "Newfoundland and Labrador",
    "country": "Canada",
    "alias": [],
    "regions": [],
    "timezone": "America/St_Johns",
    "unlocs": [
      "CACBK"
    ],
    "code": "15231"
  },
  "CACCB": {
    "name": "Cowichan Bay",
    "city": "Cowichan Bay",
    "province": "British Columbia",
    "country": "Canada",
    "alias": [],
    "regions": [],
    "coordinates": [
      -123.6215503,
      48.7373094
    ],
    "timezone": "America/Vancouver",
    "unlocs": [
      "CACCB"
    ],
    "code": "12231"
  },
  "CACOL": {
    "name": "Collingwood",
    "city": "Collingwood",
    "province": "Ontario",
    "country": "Canada",
    "alias": [],
    "regions": [],
    "coordinates": [
      -80.2169047,
      44.50076869999999
    ],
    "timezone": "America/Toronto",
    "unlocs": [
      "CACOL"
    ],
    "code": "9000"
  },
  "CACRO": {
    "name": "Crofton",
    "city": "Crofton",
    "province": "British Columbia",
    "country": "Canada",
    "alias": [],
    "regions": [],
    "coordinates": [
      -123.6457977,
      48.86384400000001
    ],
    "timezone": "America/Vancouver",
    "unlocs": [
      "CACRO"
    ],
    "code": "12234"
  },
  "CACWL": {
    "name": "Cornwall",
    "city": "Cornwall",
    "province": "Ontario",
    "country": "Canada",
    "alias": [],
    "regions": [],
    "coordinates": [
      -74.730345,
      45.0212762
    ],
    "timezone": "America/Toronto",
    "unlocs": [
      "CACWL"
    ],
    "code": "1784"
  },
  "CADOR": {
    "name": "Dorval",
    "city": "Dorval",
    "province": "Quebec",
    "country": "Canada",
    "alias": [],
    "regions": [],
    "coordinates": [
      -73.75004849999999,
      45.4503213
    ],
    "timezone": "America/Toronto",
    "unlocs": [
      "CADOR"
    ],
    "code": "13400"
  },
  "CADRU": {
    "name": "Drummondville",
    "city": "Drummondville",
    "province": "Quebec",
    "country": "Canada",
    "alias": [],
    "regions": [],
    "coordinates": [
      -72.4842824,
      45.8802909
    ],
    "timezone": "America/Toronto",
    "unlocs": [
      "CADRU"
    ],
    "code": "13400"
  },
  "CAEDM": {
    "name": "Edmonton",
    "city": "Edmonton",
    "province": "Alberta",
    "country": "Canada",
    "alias": [],
    "regions": [],
    "coordinates": [
      -113.4909267,
      53.544389
    ],
    "timezone": "America/Edmonton",
    "unlocs": [
      "CAEDM"
    ],
    "code": "12200"
  },
  "CAHAL": {
    "name": "Halifax",
    "city": "Halifax",
    "province": "Nova Scotia",
    "country": "Canada",
    "alias": [],
    "regions": [],
    "coordinates": [
      -63.5753196,
      44.6488625
    ],
    "timezone": "America/Halifax",
    "unlocs": [
      "CAHAL"
    ],
    "code": "13841"
  },
  "CAHAM": {
    "name": "Hamilton",
    "city": "Hamilton",
    "province": "Ontario",
    "country": "Canada",
    "alias": [],
    "regions": [],
    "coordinates": [
      -79.8660914,
      43.25002080000001
    ],
    "timezone": "America/Toronto",
    "unlocs": [
      "CAHAM"
    ],
    "code": "23201"
  },
  "CAHMC": {
    "name": "Harmac",
    "coordinates": [
      -123.85,
      49.13
    ],
    "city": "Harmac",
    "province": "British Columbia",
    "country": "Canada",
    "alias": [],
    "regions": [],
    "timezone": "America/Vancouver",
    "unlocs": [
      "CAHMC"
    ],
    "code": "12407"
  },
  "CAKVL": {
    "name": "Kingsville",
    "city": "Kingsville",
    "province": "Ontario",
    "country": "Canada",
    "alias": [],
    "regions": [],
    "coordinates": [
      -82.7389809,
      42.0362841
    ],
    "timezone": "America/Toronto",
    "unlocs": [
      "CAKVL"
    ],
    "code": "3506"
  },
  "CAMAG": {
    "name": "Magog",
    "city": "Magog",
    "province": "Quebec",
    "country": "Canada",
    "alias": [],
    "regions": [],
    "coordinates": [
      -72.1479889,
      45.2664863
    ],
    "timezone": "America/Toronto",
    "unlocs": [
      "CAMAG"
    ],
    "code": "13400"
  },
  "CAMNT": {
    "name": "Moncton",
    "city": "Moncton",
    "province": "New Brunswick",
    "country": "Canada",
    "alias": [],
    "regions": [],
    "coordinates": [
      -64.7782313,
      46.0878165
    ],
    "timezone": "America/Halifax",
    "unlocs": [
      "CAMNT"
    ],
    "code": "13400"
  },
  "CAMTR": {
    "name": "Montreal",
    "city": "Montreal",
    "province": "Quebec",
    "country": "Canada",
    "alias": [],
    "regions": [],
    "coordinates": [
      -73.567256,
      45.5016889
    ],
    "timezone": "America/Toronto",
    "unlocs": [
      "CAMTR"
    ],
    "code": "1822"
  },
  "CANIA": {
    "name": "Niagara Falls",
    "city": "Niagara Falls",
    "province": "Ontario",
    "country": "Canada",
    "alias": [],
    "regions": [],
    "coordinates": [
      -79.0849436,
      43.0895577
    ],
    "timezone": "America/Toronto",
    "unlocs": [
      "CANIA"
    ],
    "code": "9000"
  },
  "CANNO": {
    "name": "Nanaimo",
    "city": "Nanaimo",
    "province": "British Columbia",
    "country": "Canada",
    "alias": [],
    "regions": [],
    "coordinates": [
      -123.9400647,
      49.1658836
    ],
    "timezone": "America/Vancouver",
    "unlocs": [
      "CANNO"
    ],
    "code": "12406"
  },
  "CANOR": {
    "name": "North Bay",
    "coordinates": [
      -79.45,
      46.3
    ],
    "city": "North Bay",
    "province": "Ontario",
    "country": "Canada",
    "alias": [],
    "regions": [],
    "timezone": "America/Toronto",
    "unlocs": [
      "CANOR"
    ],
    "code": "9000"
  },
  "CANWE": {
    "name": "New Westminster",
    "city": "New Westminster",
    "province": "British Columbia",
    "country": "Canada",
    "alias": [],
    "regions": [],
    "coordinates": [
      -122.910956,
      49.2057179
    ],
    "timezone": "America/Vancouver",
    "unlocs": [
      "CANWE"
    ],
    "code": "12200"
  },
  "CAOAK": {
    "name": "Oakville",
    "city": "Oakville",
    "province": "Ontario",
    "country": "Canada",
    "alias": [],
    "regions": [],
    "coordinates": [
      -79.6876659,
      43.467517
    ],
    "timezone": "America/Toronto",
    "unlocs": [
      "CAOAK"
    ],
    "code": "6770"
  },
  "CAODE": {
    "timezone": "America/Toronto",
    "coordinates": [
      -76.71829249999999,
      44.2770379
    ],
    "name": "Odessa",
    "city": "Odessa",
    "province": "Ontario",
    "country": "Canada",
    "alias": [],
    "regions": [],
    "unlocs": [
      "CAODE"
    ],
    "code": "9000"
  },
  "CAOSH": {
    "name": "Oshawa",
    "city": "Oshawa",
    "province": "Ontario",
    "country": "Canada",
    "alias": [],
    "regions": [],
    "coordinates": [
      -78.86579119999999,
      43.8970929
    ],
    "timezone": "America/Toronto",
    "unlocs": [
      "CAOSH"
    ],
    "code": "9670"
  },
  "CAPCR": {
    "name": "Port Credit",
    "city": "Port Credit",
    "province": "Ontario",
    "country": "Canada",
    "alias": [],
    "regions": [],
    "coordinates": [
      -79.585628,
      43.5516151
    ],
    "timezone": "America/Toronto",
    "unlocs": [
      "CAPCR"
    ],
    "code": "1530"
  },
  "CAPDV": {
    "name": "Port Dover",
    "city": "Port Dover",
    "province": "Ontario",
    "country": "Canada",
    "alias": [],
    "regions": [],
    "coordinates": [
      -80.20327790000002,
      42.7865225
    ],
    "timezone": "America/Toronto",
    "unlocs": [
      "CAPDV"
    ],
    "code": "9000"
  },
  "CAPML": {
    "name": "Port Mellon",
    "city": "Port Mellon",
    "province": "British Columbia",
    "country": "Canada",
    "alias": [],
    "regions": [],
    "coordinates": [
      -123.4880588,
      49.5217479
    ],
    "timezone": "America/Vancouver",
    "unlocs": [
      "CAPML"
    ],
    "code": "12428"
  },
  "CAPOI": {
    "name": "Pointe-Claire",
    "coordinates": [
      -73.73,
      45.43
    ],
    "city": "Pointe-Claire",
    "province": "Quebec",
    "country": "Canada",
    "alias": [],
    "regions": [],
    "timezone": "America/Toronto",
    "unlocs": [
      "CAPOI"
    ],
    "code": "13400"
  },
  "CAPRR": {
    "name": "Prince Rupert",
    "city": "Prince Rupert",
    "province": "British Columbia",
    "country": "Canada",
    "alias": [],
    "regions": [],
    "coordinates": [
      -130.3208187,
      54.3150367
    ],
    "timezone": "America/Vancouver",
    "unlocs": [
      "CAPRR"
    ],
    "code": "12442"
  },
  "CAQUE": {
    "name": "Quebec",
    "city": "Quebec",
    "province": "Quebec",
    "country": "Canada",
    "alias": [],
    "regions": [],
    "coordinates": [
      -71.242796,
      46.8032826
    ],
    "timezone": "America/Toronto",
    "unlocs": [
      "CAQUE"
    ],
    "code": "80109"
  },
  "CASAK": {
    "name": "Saskatoon",
    "city": "Saskatoon",
    "province": "Saskatchewan",
    "country": "Canada",
    "alias": [],
    "regions": [],
    "coordinates": [
      -106.6700458,
      52.1332144
    ],
    "timezone": "America/Regina",
    "unlocs": [
      "CASAK"
    ],
    "code": "9000"
  },
  "CASCA": {
    "name": "Saint-Catharines",
    "coordinates": [
      -79.23,
      43.17
    ],
    "city": "Saint-Catharines",
    "province": "Ontario",
    "country": "Canada",
    "alias": [],
    "regions": [],
    "timezone": "America/Toronto",
    "unlocs": [
      "CASCA"
    ],
    "code": "1690"
  },
  "CASJB": {
    "name": "Saint-John",
    "coordinates": [
      -66.07,
      45.27
    ],
    "city": "Saint-John",
    "province": "New Brunswick",
    "country": "Canada",
    "alias": [],
    "regions": [],
    "timezone": "America/Halifax",
    "unlocs": [
      "CASJB"
    ],
    "code": "14428"
  },
  "CASJF": {
    "name": "Saint-John's",
    "coordinates": [
      -52.73,
      47.57
    ],
    "city": "Saint-John's",
    "province": "Newfoundland and Labrador",
    "country": "Canada",
    "alias": [],
    "regions": [],
    "timezone": "America/St_Johns",
    "unlocs": [
      "CASJF"
    ],
    "code": "15282"
  },
  "CASNI": {
    "name": "Sarnia",
    "city": "Sarnia",
    "province": "Ontario",
    "country": "Canada",
    "alias": [],
    "regions": [],
    "coordinates": [
      -82.4065901,
      42.974536
    ],
    "timezone": "America/Toronto",
    "unlocs": [
      "CASNI"
    ],
    "code": "5520"
  },
  "CASOR": {
    "name": "Sorel",
    "city": "Sorel",
    "province": "Quebec",
    "country": "Canada",
    "alias": [],
    "regions": [],
    "coordinates": [
      -73.112302,
      46.042825
    ],
    "timezone": "America/Toronto",
    "unlocs": [
      "CASOR"
    ],
    "code": "14466"
  },
  "CASSM": {
    "name": "Sault-Sainte-Marie",
    "city": "Sault-Sainte-Marie",
    "province": "Ontario",
    "country": "Canada",
    "alias": [],
    "regions": [],
    "coordinates": [
      -84.3460896,
      46.52185799999999
    ],
    "timezone": "America/Toronto",
    "unlocs": [
      "CASSM"
    ],
    "code": "8525"
  },
  "CASTC": {
    "name": "Stoney Creek",
    "city": "Stoney Creek",
    "province": "Ontario",
    "country": "Canada",
    "alias": [],
    "regions": [],
    "coordinates": [
      -79.7195586,
      43.2272182
    ],
    "timezone": "America/Toronto",
    "unlocs": [
      "CASTC"
    ],
    "code": "9000"
  },
  "CASUM": {
    "name": "Summerside",
    "city": "Summerside",
    "province": "Prince Edward Island",
    "country": "Canada",
    "alias": [],
    "regions": [],
    "coordinates": [
      -63.79023309999999,
      46.39337769999999
    ],
    "timezone": "America/Halifax",
    "unlocs": [
      "CASUM"
    ],
    "code": "14470"
  },
  "CATEX": {
    "name": "Texada Island",
    "city": "Texada Island",
    "province": "British Columbia",
    "country": "Canada",
    "alias": [],
    "regions": [],
    "coordinates": [
      -124.4121947,
      49.6596634
    ],
    "timezone": "America/Vancouver",
    "unlocs": [
      "CATEX"
    ],
    "code": "12206"
  },
  "CATHU": {
    "name": "Thunder Bay",
    "city": "Thunder Bay",
    "province": "Ontario",
    "country": "Canada",
    "alias": [],
    "regions": [],
    "coordinates": [
      -89.2476823,
      48.3808951
    ],
    "timezone": "America/Toronto",
    "unlocs": [
      "CATHU"
    ],
    "code": "9662"
  },
  "CATOR": {
    "name": "Toronto",
    "city": "Toronto",
    "province": "Ontario",
    "country": "Canada",
    "alias": [],
    "regions": [],
    "coordinates": [
      -79.3831843,
      43.653226
    ],
    "timezone": "America/Toronto",
    "unlocs": [
      "CATOR"
    ],
    "code": "1535"
  },
  "CATRR": {
    "name": "Trois-Rivieres (Three Rivers)",
    "city": "Trois-Rivieres (Three Rivers)",
    "province": "Quebec",
    "country": "Canada",
    "alias": [],
    "regions": [],
    "coordinates": [
      -72.5475259,
      46.35924199999999
    ],
    "timezone": "America/Toronto",
    "unlocs": [
      "CATRR"
    ],
    "code": "14474"
  },
  "CATTC": {
    "name": "Trenton",
    "city": "Trenton",
    "province": "Ontario",
    "country": "Canada",
    "alias": [],
    "regions": [],
    "coordinates": [
      -77.576313,
      44.1011263
    ],
    "timezone": "America/Toronto",
    "unlocs": [
      "CATTC"
    ],
    "code": "9000"
  },
  "CAVAN": {
    "name": "Vancouver",
    "city": "Vancouver",
    "province": "British Columbia",
    "country": "Canada",
    "alias": [],
    "regions": [],
    "coordinates": [
      -123.1207375,
      49.2827291
    ],
    "timezone": "America/Vancouver",
    "unlocs": [
      "CAVAN"
    ],
    "code": "12493"
  },
  "CAVLF": {
    "name": "Valleyfield",
    "coordinates": [
      -74.13,
      45.25
    ],
    "city": "Valleyfield",
    "province": "Quebec",
    "country": "Canada",
    "alias": [],
    "regions": [],
    "timezone": "America/Toronto",
    "unlocs": [
      "CAVLF"
    ],
    "code": "14067"
  },
  "CAWIN": {
    "name": "Winona",
    "city": "Winona",
    "province": "Ontario",
    "country": "Canada",
    "alias": [],
    "regions": [],
    "coordinates": [
      -79.6509165,
      43.2079596
    ],
    "timezone": "America/Toronto",
    "unlocs": [
      "CAWIN"
    ],
    "code": "9000"
  },
  "CAWNP": {
    "name": "Winnipeg",
    "city": "Winnipeg",
    "province": "Manitoba",
    "country": "Canada",
    "alias": [],
    "regions": [],
    "coordinates": [
      -97.1374937,
      49.8997541
    ],
    "timezone": "America/Winnipeg",
    "unlocs": [
      "CAWNP"
    ],
    "code": "9000"
  },
  "CDBOA": {
    "name": "Boma",
    "city": "Boma",
    "country": "Congo, The Democratic Republic of the",
    "alias": [],
    "regions": [],
    "coordinates": [
      -5.8347218,
      13.022875
    ],
    "timezone": "Africa/Bamako",
    "unlocs": [
      "CDBOA"
    ],
    "code": "76638"
  },
  "CDMAT": {
    "name": "Matadi",
    "city": "Matadi",
    "country": "Congo, The Democratic Republic of the",
    "alias": [],
    "regions": [],
    "coordinates": [
      -5.8237941,
      13.4509856
    ],
    "timezone": "Africa/Bamako",
    "unlocs": [
      "CDMAT"
    ],
    "code": "76637"
  },
  "CGPNR": {
    "name": "Pointe Noire",
    "city": "Pointe Noire",
    "country": "Congo",
    "alias": [],
    "regions": [],
    "coordinates": [
      11.866362,
      -4.7691623
    ],
    "province": "Kouilou",
    "timezone": "Africa/Brazzaville",
    "unlocs": [
      "CGPNR"
    ],
    "code": "76600"
  },
  "CIABJ": {
    "name": "Abidjan",
    "city": "Abidjan",
    "country": "Côte d'Ivoire",
    "alias": [],
    "regions": [],
    "coordinates": [
      -4.0082563,
      5.3599517
    ],
    "province": "Lagunes",
    "timezone": "Africa/Abidjan",
    "unlocs": [
      "CIABJ"
    ],
    "code": "74825"
  },
  "CISPY": {
    "name": "San-Pedro",
    "coordinates": [
      -6.62,
      4.73
    ],
    "city": "San-Pédro",
    "province": "Bas-Sassandra (Région du)",
    "country": "Côte d'Ivoire",
    "alias": [],
    "regions": [],
    "timezone": "Africa/Abidjan",
    "unlocs": [
      "CISPY"
    ]
  },
  "CLANF": {
    "name": "Antofagasta",
    "coordinates": [
      -70.38,
      -23.63
    ],
    "city": "Antofagasta",
    "province": "Antofagasta",
    "country": "Chile",
    "alias": [],
    "regions": [],
    "timezone": "America/Santiago",
    "unlocs": [
      "CLANF"
    ],
    "code": "33703"
  },
  "CLARI": {
    "name": "Arica",
    "coordinates": [
      -70.32,
      -18.48
    ],
    "city": "Arica",
    "province": "Arica y Parinacota",
    "country": "Chile",
    "alias": [],
    "regions": [],
    "timezone": "America/Santiago",
    "unlocs": [
      "CLARI"
    ],
    "code": "33706"
  },
  "CLBAG": {
    "name": "Bahia San Gregorio",
    "coordinates": [
      -70.13,
      -52.62
    ],
    "city": "Bahía San Gregorio",
    "province": "Magallanes",
    "country": "Chile",
    "alias": [],
    "regions": [],
    "timezone": "America/Santiago",
    "unlocs": [
      "CLBAG"
    ],
    "code": "33700"
  },
  "CLBAR": {
    "name": "Barquito",
    "coordinates": [
      -70.63,
      -26.35
    ],
    "city": "Barquito",
    "province": "Atacama",
    "country": "Chile",
    "alias": [],
    "regions": [],
    "timezone": "America/Santiago",
    "unlocs": [
      "CLBAR"
    ],
    "code": "33700"
  },
  "CLCAP": {
    "name": "San Vicente",
    "city": "San Vicente",
    "province": "CAP",
    "country": "Chile",
    "alias": [],
    "regions": [],
    "coordinates": [
      -4.397057999999999,
      43.3813069
    ],
    "timezone": "Europe/Madrid",
    "unlocs": [
      "CLCAP"
    ],
    "code": "33780"
  },
  "CLCBC": {
    "name": "Calbuco",
    "coordinates": [
      -73.13,
      -41.75
    ],
    "city": "Calbuco",
    "province": "Los Lagos",
    "country": "Chile",
    "alias": [],
    "regions": [],
    "timezone": "America/Santiago",
    "unlocs": [
      "CLCBC"
    ],
    "code": "33700"
  },
  "CLCCL": {
    "name": "Caleta Coloso",
    "city": "Caleta Coloso",
    "country": "Chile",
    "alias": [],
    "regions": [],
    "coordinates": [
      -70.29371789999999,
      -18.4350352
    ],
    "province": "Región de Arica y Parinacota",
    "timezone": "America/Santiago",
    "unlocs": [
      "CLCCL"
    ],
    "code": "33700"
  },
  "CLCHB": {
    "name": "Chacabuco",
    "coordinates": [
      -72.82,
      -45.48
    ],
    "city": "Chacabuco",
    "province": "Aysén",
    "country": "Chile",
    "alias": [],
    "regions": [],
    "timezone": "America/Santiago",
    "unlocs": [
      "CLCHB"
    ],
    "code": "33700"
  },
  "CLCLD": {
    "name": "Caldera",
    "coordinates": [
      -70.8,
      -27.03
    ],
    "city": "Caldera",
    "province": "Atacama",
    "country": "Chile",
    "alias": [],
    "regions": [],
    "timezone": "America/Santiago",
    "unlocs": [
      "CLCLD"
    ],
    "code": "33708"
  },
  "CLCNL": {
    "name": "Coronel",
    "coordinates": [
      -73.15,
      -37.02
    ],
    "city": "Coronel",
    "province": "Biobío",
    "country": "Chile",
    "alias": [],
    "regions": [],
    "timezone": "America/Santiago",
    "unlocs": [
      "CLCNL"
    ],
    "code": "33700"
  },
  "CLCNR": {
    "name": "Chanaral",
    "coordinates": [
      -70.62,
      -26.35
    ],
    "city": "Chañaral",
    "province": "Atacama",
    "country": "Chile",
    "alias": [],
    "regions": [],
    "timezone": "America/Santiago",
    "unlocs": [
      "CLCNR"
    ],
    "code": "33716"
  },
  "CLCNX": {
    "name": "Cabo Negro",
    "coordinates": [
      -70.85,
      -52.97
    ],
    "city": "Cabo Negro",
    "province": "Magallanes",
    "country": "Chile",
    "alias": [],
    "regions": [],
    "timezone": "America/Santiago",
    "unlocs": [
      "CLCNX"
    ],
    "code": "33700"
  },
  "CLCQQ": {
    "name": "Coquimbo",
    "coordinates": [
      -71.33,
      -29.97
    ],
    "city": "Coquimbo",
    "province": "Coquimbo",
    "country": "Chile",
    "alias": [],
    "regions": [],
    "timezone": "America/Santiago",
    "unlocs": [
      "CLCQQ"
    ],
    "code": "33721"
  },
  "CLCRR": {
    "name": "Corral",
    "coordinates": [
      -73.43,
      -39.87
    ],
    "city": "Corral",
    "province": "Los Lagos",
    "country": "Chile",
    "alias": [],
    "regions": [],
    "timezone": "America/Santiago",
    "unlocs": [
      "CLCRR"
    ],
    "code": "33700"
  },
  "CLDCH": {
    "name": "Dalcahue",
    "coordinates": [
      -73.67,
      -42.38
    ],
    "city": "Dalcahue",
    "province": "Los Lagos",
    "country": "Chile",
    "alias": [],
    "regions": [],
    "timezone": "America/Santiago",
    "unlocs": [
      "CLDCH"
    ],
    "code": "33700"
  },
  "CLGYC": {
    "name": "Guayacan",
    "coordinates": [
      -71.37,
      -29.98
    ],
    "city": "Guayacán",
    "province": "Coquimbo",
    "country": "Chile",
    "alias": [],
    "regions": [],
    "timezone": "America/Santiago",
    "unlocs": [
      "CLGYC"
    ],
    "code": "33735"
  },
  "CLHSO": {
    "name": "Huasco",
    "coordinates": [
      -71.22,
      -28.45
    ],
    "city": "Huasco",
    "province": "Atacama",
    "country": "Chile",
    "alias": [],
    "regions": [],
    "timezone": "America/Santiago",
    "unlocs": [
      "CLHSO"
    ],
    "code": "33739"
  },
  "CLIPC": {
    "name": "Isla de Pascua",
    "coordinates": [
      -109.42,
      -27.15
    ],
    "city": "Isla de Pascua",
    "province": "Valparaíso",
    "country": "Chile",
    "alias": [],
    "regions": [],
    "timezone": "Pacific/Easter",
    "unlocs": [
      "CLIPC"
    ],
    "code": "33700"
  },
  "CLIQQ": {
    "name": "Iquique",
    "coordinates": [
      -70.13,
      -20.22
    ],
    "city": "Iquique",
    "province": "Tarapacá",
    "country": "Chile",
    "alias": [],
    "regions": [],
    "timezone": "America/Santiago",
    "unlocs": [
      "CLIQQ"
    ],
    "code": "33741"
  },
  "CLJRL": {
    "name": "Jureles",
    "city": "Jureles",
    "province": "Coronel Bay",
    "country": "Chile",
    "alias": [],
    "regions": [],
    "coordinates": [
      -36.9721439,
      -73.2265222
    ],
    "unlocs": [
      "CLJRL"
    ],
    "code": "33700"
  },
  "CLLOS": {
    "name": "Los Vilos",
    "coordinates": [
      -71.5,
      -31.9
    ],
    "city": "Los Vilos",
    "province": "Coquimbo",
    "country": "Chile",
    "alias": [],
    "regions": [],
    "timezone": "America/Santiago",
    "unlocs": [
      "CLLOS"
    ],
    "code": "33700"
  },
  "CLLQN": {
    "name": "Lirquen",
    "coordinates": [
      -72.98,
      -36.7
    ],
    "city": "Lirquén",
    "province": "Biobío",
    "country": "Chile",
    "alias": [],
    "regions": [],
    "timezone": "America/Santiago",
    "unlocs": [
      "CLLQN"
    ],
    "code": "33751"
  },
  "CLLVS": {
    "name": "Las Ventanas",
    "coordinates": [
      -71.65,
      -33.27
    ],
    "city": "Las Ventanas",
    "province": "Valparaíso",
    "country": "Chile",
    "alias": [],
    "regions": [],
    "timezone": "America/Santiago",
    "unlocs": [
      "CLLVS"
    ],
    "code": "33700"
  },
  "CLMCH": {
    "name": "Michilla",
    "city": "Michilla",
    "country": "Chile",
    "alias": [],
    "regions": [],
    "coordinates": [
      -70.27768979999999,
      -22.7183138
    ],
    "province": "Región de Antofagasta",
    "timezone": "America/Santiago",
    "unlocs": [
      "CLMCH"
    ],
    "code": "33700"
  },
  "CLMJS": {
    "name": "Mejillones",
    "coordinates": [
      -70.45,
      -23.1
    ],
    "city": "Mejillones",
    "province": "Antofagasta",
    "country": "Chile",
    "alias": [],
    "regions": [],
    "timezone": "America/Santiago",
    "unlocs": [
      "CLMJS"
    ],
    "code": "33700"
  },
  "CLPAG": {
    "name": "Puerto Angamos",
    "coordinates": [
      -70.45,
      -23.08
    ],
    "city": "Puerto Angamos",
    "province": "Antofagasta",
    "country": "Chile",
    "alias": [],
    "regions": [],
    "timezone": "America/Santiago",
    "unlocs": [
      "CLPAG"
    ],
    "code": "33700"
  },
  "CLPCH": {
    "name": "Puerto Chacabuco",
    "coordinates": [
      -72.83,
      -45.48
    ],
    "city": "Puerto Chacabuco",
    "province": "Aysén",
    "country": "Chile",
    "alias": [],
    "regions": [],
    "timezone": "America/Santiago",
    "unlocs": [
      "CLPCH"
    ],
    "code": "33700"
  },
  "CLPEO": {
    "name": "Penco",
    "coordinates": [
      -72.98,
      -36.72
    ],
    "city": "Penco",
    "province": "Biobío",
    "country": "Chile",
    "alias": [],
    "regions": [],
    "timezone": "America/Santiago",
    "unlocs": [
      "CLPEO"
    ],
    "code": "33782"
  },
  "CLPGO": {
    "name": "Punta Chungo",
    "city": "Punta Chungo",
    "country": "Chile",
    "alias": [],
    "regions": [],
    "coordinates": [
      -31.885551,
      -71.5038607
    ],
    "unlocs": [
      "CLPGO"
    ],
    "code": "33700"
  },
  "CLPMC": {
    "name": "Puerto Montt",
    "coordinates": [
      -72.95,
      -41.47
    ],
    "city": "Puerto Montt",
    "province": "Los Lagos",
    "country": "Chile",
    "alias": [],
    "regions": [],
    "timezone": "America/Santiago",
    "unlocs": [
      "CLPMC"
    ],
    "code": "33700"
  },
  "CLPNT": {
    "name": "Puerto Natales",
    "coordinates": [
      -72.5,
      -51.72
    ],
    "city": "Puerto Natales",
    "province": "Magallanes",
    "country": "Chile",
    "alias": [],
    "regions": [],
    "timezone": "America/Santiago",
    "unlocs": [
      "CLPNT"
    ],
    "code": "33700"
  },
  "CLPPC": {
    "name": "Punta Patache",
    "coordinates": [
      -70.22,
      -20.82
    ],
    "city": "Punta Patache",
    "country": "Chile",
    "alias": [],
    "regions": [],
    "timezone": "America/Santiago",
    "unlocs": [
      "CLPPC"
    ],
    "code": "33700"
  },
  "CLPPD": {
    "name": "Punta Padrones",
    "city": "Punta Padrones",
    "country": "Chile",
    "alias": [],
    "regions": [],
    "coordinates": [
      -27.0522946,
      -70.841904
    ],
    "unlocs": [
      "CLPPD"
    ],
    "code": "33700"
  },
  "CLPTE": {
    "name": "Quellon (Puerto Quellon)",
    "coordinates": [
      -73.62,
      -43.1
    ],
    "city": "Quellón (Puerto Quellón)",
    "province": "Los Lagos",
    "country": "Chile",
    "alias": [],
    "regions": [],
    "timezone": "America/Santiago",
    "unlocs": [
      "CLPTE"
    ],
    "code": "33700"
  },
  "CLPTI": {
    "name": "Patillos",
    "coordinates": [
      -70.18,
      -20.75
    ],
    "city": "Patillos",
    "province": "Tarapacá",
    "country": "Chile",
    "alias": [],
    "regions": [],
    "timezone": "America/Santiago",
    "unlocs": [
      "CLPTI"
    ],
    "code": "33765"
  },
  "CLPUQ": {
    "name": "Punta Arenas",
    "coordinates": [
      -70.93,
      -53.13
    ],
    "city": "Punta Arenas",
    "province": "Magallanes",
    "country": "Chile",
    "alias": [],
    "regions": [],
    "timezone": "America/Santiago",
    "unlocs": [
      "CLPUQ"
    ],
    "code": "33770"
  },
  "CLQMC": {
    "name": "Quemchi",
    "coordinates": [
      -73.48,
      -42.13
    ],
    "city": "Quemchi",
    "province": "Los Lagos",
    "country": "Chile",
    "alias": [],
    "regions": [],
    "timezone": "America/Santiago",
    "unlocs": [
      "CLQMC"
    ],
    "code": "33700"
  },
  "CLQTV": {
    "name": "Quintero",
    "coordinates": [
      -71.53,
      -32.77
    ],
    "city": "Quintero",
    "province": "Valparaíso",
    "country": "Chile",
    "alias": [],
    "regions": [],
    "timezone": "America/Santiago",
    "unlocs": [
      "CLQTV"
    ],
    "code": "33775"
  },
  "CLSAI": {
    "name": "San Antonio",
    "coordinates": [
      -71.6,
      -33.6
    ],
    "city": "San Antonio",
    "province": "Valparaíso",
    "country": "Chile",
    "alias": [],
    "regions": [],
    "timezone": "America/Santiago",
    "unlocs": [
      "CLSAI"
    ],
    "code": "33779"
  },
  "CLSVE": {
    "name": "San Vicente",
    "coordinates": [
      -73.13,
      -36.7
    ],
    "city": "San Vicente",
    "province": "Biobío",
    "country": "Chile",
    "alias": [],
    "regions": [],
    "timezone": "America/Santiago",
    "unlocs": [
      "CLSVE"
    ],
    "code": "33780"
  },
  "CLTAL": {
    "name": "Talcahuano",
    "coordinates": [
      -73.12,
      -36.73
    ],
    "city": "Talcahuano",
    "province": "Biobío",
    "country": "Chile",
    "alias": [],
    "regions": [],
    "timezone": "America/Santiago",
    "unlocs": [
      "CLTAL"
    ],
    "code": "33781"
  },
  "CLTHO": {
    "name": "Talcahuano",
    "city": "Talcahuano",
    "country": "Chile",
    "alias": [],
    "regions": [],
    "coordinates": [
      -73.1169808,
      -36.7247834
    ],
    "province": "Bío Bío Region",
    "timezone": "America/Santiago",
    "unlocs": [
      "CLTHO"
    ],
    "code": "33781"
  },
  "CLTOM": {
    "name": "Tome",
    "coordinates": [
      -72.95,
      -36.6
    ],
    "city": "Tomé",
    "province": "Biobío",
    "country": "Chile",
    "alias": [],
    "regions": [],
    "timezone": "America/Santiago",
    "unlocs": [
      "CLTOM"
    ],
    "code": "33700"
  },
  "CLTOQ": {
    "name": "Tocopilla",
    "coordinates": [
      -70.18,
      -22.08
    ],
    "city": "Tocopilla",
    "province": "Antofagasta",
    "country": "Chile",
    "alias": [],
    "regions": [],
    "timezone": "America/Santiago",
    "unlocs": [
      "CLTOQ"
    ],
    "code": "33788"
  },
  "CLTTC": {
    "name": "Taltal",
    "coordinates": [
      -70.47,
      -25.4
    ],
    "city": "Taltal",
    "province": "Antofagasta",
    "country": "Chile",
    "alias": [],
    "regions": [],
    "timezone": "America/Santiago",
    "unlocs": [
      "CLTTC"
    ],
    "code": "33700"
  },
  "CLVAP": {
    "name": "Valparaiso",
    "coordinates": [
      -71.63,
      -33.03
    ],
    "city": "Valparaiso",
    "province": "Valparaíso",
    "country": "Chile",
    "alias": [],
    "regions": [],
    "timezone": "America/Santiago",
    "unlocs": [
      "CLVAP"
    ],
    "code": "33797"
  },
  "CLWCA": {
    "name": "Castro",
    "coordinates": [
      -73.77,
      -42.47
    ],
    "city": "Castro",
    "province": "Los Lagos",
    "country": "Chile",
    "alias": [],
    "regions": [],
    "timezone": "America/Santiago",
    "unlocs": [
      "CLWCA"
    ],
    "code": "33700"
  },
  "CLWCH": {
    "name": "Chaiten",
    "coordinates": [
      -72.7,
      -42.92
    ],
    "city": "Chaitén",
    "province": "Los Lagos",
    "country": "Chile",
    "alias": [],
    "regions": [],
    "timezone": "America/Santiago",
    "unlocs": [
      "CLWCH"
    ],
    "code": "33700"
  },
  "CLWPA": {
    "name": "Puerto Aisen",
    "coordinates": [
      -72.7,
      -45.38
    ],
    "city": "Puerto Aisén",
    "province": "Aysén",
    "country": "Chile",
    "alias": [],
    "regions": [],
    "timezone": "America/Santiago",
    "unlocs": [
      "CLWPA"
    ],
    "code": "33700"
  },
  "CLWPU": {
    "name": "Puerto Williams",
    "coordinates": [
      -67.62,
      -54.92
    ],
    "city": "Puerto Williams",
    "province": "Magallanes",
    "country": "Chile",
    "alias": [],
    "regions": [],
    "timezone": "America/Santiago",
    "unlocs": [
      "CLWPU"
    ],
    "code": "33700"
  },
  "CLZUD": {
    "name": "Ancud",
    "coordinates": [
      -73.83,
      -41.85
    ],
    "city": "Ancud",
    "province": "Los Lagos",
    "country": "Chile",
    "alias": [],
    "regions": [],
    "timezone": "America/Santiago",
    "unlocs": [
      "CLZUD"
    ],
    "code": "33700"
  },
  "CMDLA": {
    "name": "Douala",
    "city": "Douala",
    "country": "Cameroon",
    "alias": [],
    "regions": [],
    "coordinates": [
      9.7678687,
      4.0510564
    ],
    "province": "Littoral",
    "timezone": "Africa/Douala",
    "unlocs": [
      "CMDLA"
    ],
    "code": "74201"
  },
  "CNBAY": {
    "name": "Bayuquan",
    "city": "Bayuquan",
    "country": "China",
    "alias": [],
    "regions": [],
    "coordinates": [
      122.107814,
      40.230636
    ],
    "province": "Liaoning",
    "timezone": "Asia/Shanghai",
    "unlocs": [
      "CNBAY"
    ],
    "code": "57000"
  },
  "CNBHY": {
    "name": "Beihai Fucheng Apt",
    "city": "Beihai Fucheng Apt",
    "province": "Guangxi",
    "country": "China",
    "alias": [],
    "regions": [],
    "coordinates": [
      108.327546,
      22.815478
    ],
    "timezone": "Asia/Shanghai",
    "unlocs": [
      "CNBHY"
    ],
    "code": "57076"
  },
  "CNBJO": {
    "name": "Beijiao",
    "coordinates": [
      119.92,
      26.35
    ],
    "city": "Beijiao",
    "province": "Fujian",
    "country": "China",
    "alias": [],
    "regions": [],
    "timezone": "Asia/Shanghai",
    "unlocs": [
      "CNBJO"
    ],
    "code": "57016"
  },
  "CNCAN": {
    "name": "Guangzhou",
    "city": "Guangzhou",
    "province": "Guangdong",
    "country": "China",
    "alias": [],
    "regions": [],
    "coordinates": [
      113.264385,
      23.12911
    ],
    "timezone": "Asia/Shanghai",
    "unlocs": [
      "CNCAN"
    ],
    "code": "57071"
  },
  "CNCGU": {
    "name": "Changshu",
    "city": "Changshu",
    "province": "Jiangsu",
    "country": "China",
    "alias": [
      "Zhangjiagang",
      "Suzhou",
      "Taicang"
    ],
    "regions": [],
    "coordinates": [
      120.752503,
      31.653686
    ],
    "timezone": "Asia/Shanghai",
    "unlocs": [
      "CNCGU"
    ],
    "code": "57076"
  },
  "CNCKG": {
    "name": "Chongqing",
    "city": "Chongqing",
    "province": "Chongqing",
    "country": "China",
    "alias": [],
    "regions": [],
    "coordinates": [
      106.551557,
      29.56301
    ],
    "timezone": "Asia/Shanghai",
    "unlocs": [
      "CNCKG"
    ],
    "code": "57000"
  },
  "CNCOZ": {
    "name": "Chaozhou Port",
    "coordinates": [
      116.63,
      23.67
    ],
    "city": "Chaozhou",
    "province": "Guangdong",
    "country": "China",
    "alias": [],
    "regions": [],
    "timezone": "Asia/Shanghai",
    "unlocs": [
      "CNCOZ"
    ],
    "code": "57000"
  },
  "CNCSX": {
    "name": "Changsha",
    "city": "Changsha",
    "province": "Hunan",
    "country": "China",
    "alias": [],
    "regions": [],
    "coordinates": [
      112.938814,
      28.228209
    ],
    "timezone": "Asia/Shanghai",
    "unlocs": [
      "CNCSX"
    ],
    "code": "57076"
  },
  "CNCTU": {
    "name": "Chengdu",
    "city": "Chengdu",
    "province": "Sichuan",
    "country": "China",
    "alias": [],
    "regions": [],
    "coordinates": [
      104.066541,
      30.572269
    ],
    "timezone": "Asia/Shanghai",
    "unlocs": [
      "CNCTU"
    ],
    "code": "57000"
  },
  "CNCWN": {
    "name": "Chiwan Port",
    "coordinates": [
      113.88,
      22.48
    ],
    "city": "Chiwan",
    "province": "Guangdong",
    "country": "China",
    "alias": [],
    "regions": [],
    "timezone": "Asia/Shanghai",
    "unlocs": [
      "CNCWN"
    ],
    "code": "57067"
  },
  "CNDAA": {
    "name": "Dagang",
    "city": "Dagang",
    "province": "Jiangsu",
    "country": "China",
    "alias": [],
    "regions": [],
    "coordinates": [
      120.103473,
      33.189192
    ],
    "timezone": "Asia/Shanghai",
    "unlocs": [
      "CNDAA"
    ],
    "code": "57000"
  },
  "CNDAL": {
    "name": "Dalian",
    "city": "Dalian",
    "province": "Liaoning",
    "country": "China",
    "alias": [],
    "regions": [],
    "coordinates": [
      121.614682,
      38.91400300000001
    ],
    "timezone": "Asia/Shanghai",
    "unlocs": [
      "CNDLC",
      "CNDAL"
    ],
    "code": "57051"
  },
  "CNDCB": {
    "city": "Da Chan Bay",
    "country": "China",
    "province": "Shenzhen",
    "name": "Da Chan Bay",
    "alias": [],
    "regions": [],
    "unlocs": [
      "CNDCB"
    ],
    "code": "57045"
  },
  "CNDGG": {
    "name": "Dongguan Port",
    "city": "Dongguan",
    "province": "Guangdong",
    "country": "China",
    "alias": [],
    "regions": [],
    "coordinates": [
      113.751765,
      23.020536
    ],
    "timezone": "Asia/Shanghai",
    "unlocs": [
      "CNDGG"
    ],
    "code": "57056"
  },
  "CNDLC": {
    "name": "Dalian",
    "city": "Dalian",
    "province": "Liaoning",
    "country": "China",
    "alias": [],
    "regions": [],
    "coordinates": [
      121.614682,
      38.91400300000001
    ],
    "timezone": "Asia/Shanghai",
    "unlocs": [
      "CNDLC",
      "CNDAL"
    ],
    "code": "57051"
  },
  "CNDOU": {
    "name": "Doumen Port",
    "coordinates": [
      113.28,
      22.2
    ],
    "city": "Doumen",
    "province": "Guangdong",
    "country": "China",
    "alias": [],
    "regions": [],
    "timezone": "Asia/Shanghai",
    "unlocs": [
      "CNDOU"
    ],
    "code": "57000"
  },
  "CNFAN": {
    "name": "Fangcheng Port",
    "coordinates": [
      108.35,
      21.77
    ],
    "city": "Fangcheng",
    "province": "Guangxi",
    "country": "China",
    "alias": [],
    "regions": [],
    "timezone": "Asia/Shanghai",
    "unlocs": [
      "CNFAN"
    ],
    "code": "57044"
  },
  "CNFNG": {
    "name": "Fuyong",
    "coordinates": [
      113.78,
      22.65
    ],
    "city": "Fuyong",
    "province": "Guangdong",
    "country": "China",
    "alias": [],
    "regions": [],
    "timezone": "Asia/Shanghai",
    "unlocs": [
      "CNFNG"
    ],
    "code": "57000"
  },
  "CNFOC": {
    "code": "57015",
    "country": "China",
    "province": "Fujian",
    "city": "Fuzhou",
    "name": "Fuzhou",
    "alias": [
      "Fuchou",
      "Foochow",
      "Foochou"
    ],
    "regions": [],
    "unlocs": [
      "CNFOC"
    ]
  },
  "CNFOS": {
    "name": "Foshan",
    "coordinates": [
      113.1,
      23.03
    ],
    "city": "Foshanzhan",
    "province": "Guangdong",
    "country": "China",
    "alias": [],
    "regions": [],
    "timezone": "Asia/Shanghai",
    "unlocs": [
      "CNFOS"
    ],
    "code": "57000"
  },
  "CNFUG": {
    "name": "Fuqing",
    "city": "Fuqing",
    "province": "Fujian",
    "country": "China",
    "alias": [],
    "regions": [],
    "coordinates": [
      119.383811,
      25.720381
    ],
    "timezone": "Asia/Shanghai",
    "unlocs": [
      "CNFUG"
    ],
    "code": "57011"
  },
  "CNGGY": {
    "name": "Gongyi",
    "city": "Gongyi",
    "province": "Guangdong",
    "country": "China",
    "alias": [],
    "regions": [],
    "coordinates": [
      113.218364,
      23.4033077
    ],
    "timezone": "Asia/Shanghai",
    "unlocs": [
      "CNGGY"
    ],
    "code": "57000"
  },
  "CNGOG": {
    "name": "Gongming",
    "coordinates": [
      113.87,
      22.78
    ],
    "city": "Gongming",
    "province": "Guangdong",
    "country": "China",
    "alias": [],
    "regions": [],
    "timezone": "Asia/Shanghai",
    "unlocs": [
      "CNGOG"
    ],
    "code": "57000"
  },
  "CNGOM": {
    "name": "Gaoming Port",
    "coordinates": [
      112.83,
      22.88
    ],
    "city": "Gaoming",
    "province": "Guangdong",
    "country": "China",
    "alias": [],
    "regions": [],
    "timezone": "Asia/Shanghai",
    "unlocs": [
      "CNGOM"
    ],
    "code": "57000"
  },
  "CNGUG": {
    "name": "Guigang",
    "coordinates": [
      109.6,
      23.1
    ],
    "city": "Guigang",
    "province": "Guangxi",
    "country": "China",
    "alias": [],
    "regions": [],
    "timezone": "Asia/Shanghai",
    "unlocs": [
      "CNGUG"
    ],
    "code": "57000"
  },
  "CNHAK": {
    "name": "Haikou",
    "city": "Haikou",
    "province": "Hainan",
    "country": "China",
    "alias": [],
    "regions": [],
    "coordinates": [
      110.198293,
      20.044002
    ],
    "timezone": "Asia/Shanghai",
    "unlocs": [
      "CNHAK"
    ],
    "code": "57012"
  },
  "CNHDU": {
    "name": "Huadu",
    "coordinates": [
      113.22,
      23.4
    ],
    "city": "Huadu",
    "province": "Guangdong",
    "country": "China",
    "alias": [],
    "regions": [],
    "timezone": "Asia/Shanghai",
    "unlocs": [
      "CNHDU"
    ],
    "code": "57000"
  },
  "CNHEB": {
    "name": "Hebei",
    "coordinates": [
      115.27,
      39.88
    ],
    "city": "Hebei",
    "province": "Hebei",
    "country": "China",
    "alias": [],
    "regions": [],
    "timezone": "Asia/Shanghai",
    "unlocs": [
      "CNHEB"
    ],
    "code": "57000"
  },
  "CNHGH": {
    "name": "Hangzhou",
    "city": "Hangzhou",
    "province": "Zhejiang",
    "country": "China",
    "alias": [],
    "regions": [],
    "coordinates": [
      120.15507,
      30.274085
    ],
    "timezone": "Asia/Shanghai",
    "unlocs": [
      "CNHGH"
    ],
    "code": "57000"
  },
  "CNHME": {
    "name": "Haimen",
    "city": "Haimen",
    "province": "Zhejiang",
    "country": "China",
    "alias": [],
    "regions": [],
    "coordinates": [
      121.4530792,
      32.1041568
    ],
    "timezone": "Asia/Shanghai",
    "unlocs": [
      "CNHME"
    ],
    "code": "57000"
  },
  "CNHMN": {
    "name": "Humen Port",
    "coordinates": [
      113.67,
      22.83
    ],
    "city": "Humen",
    "province": "Guangdong",
    "country": "China",
    "alias": [],
    "regions": [],
    "timezone": "Asia/Shanghai",
    "unlocs": [
      "CNHMN"
    ],
    "code": "57000"
  },
  "CNHSN": {
    "name": "Heshan Port",
    "coordinates": [
      112.95,
      22.77
    ],
    "city": "Heshan",
    "province": "Guangdong",
    "country": "China",
    "alias": [],
    "regions": [],
    "timezone": "Asia/Shanghai",
    "unlocs": [
      "CNHSN"
    ],
    "code": "57000"
  },
  "CNHUA": {
    "name": "Huangpu Port",
    "city": "Huangpu",
    "province": "Guangdong",
    "country": "China",
    "alias": [],
    "regions": [],
    "coordinates": [
      113.459714,
      23.106899
    ],
    "timezone": "Asia/Shanghai",
    "unlocs": [
      "CNHUA"
    ],
    "code": "57072"
  },
  "CNHUD": {
    "name": "Huludao Port",
    "coordinates": [
      120.85,
      40.75
    ],
    "city": "Huludao",
    "province": "Liaoning",
    "country": "China",
    "alias": [],
    "regions": [],
    "timezone": "Asia/Shanghai",
    "unlocs": [
      "CNHUD"
    ],
    "code": "57000"
  },
  "CNHUI": {
    "name": "Huizhou Port",
    "coordinates": [
      114.37,
      23.08
    ],
    "city": "Huizhou",
    "province": "Guangdong",
    "country": "China",
    "alias": [],
    "regions": [],
    "timezone": "Asia/Shanghai",
    "unlocs": [
      "CNHUI"
    ],
    "code": "57022"
  },
  "CNJGZ": {
    "name": "Jingzhou",
    "coordinates": [
      112.18,
      30.35
    ],
    "city": "Jingzhou",
    "province": "Hubei",
    "country": "China",
    "alias": [],
    "regions": [],
    "timezone": "Asia/Shanghai",
    "unlocs": [
      "CNJGZ"
    ],
    "code": "57000"
  },
  "CNJIA": {
    "name": "Jiangyin Port",
    "coordinates": [
      120.28,
      31.9
    ],
    "city": "Jiangyin",
    "province": "Jiangsu",
    "country": "China",
    "alias": [],
    "regions": [],
    "timezone": "Asia/Shanghai",
    "unlocs": [
      "CNJIA"
    ],
    "code": "57080"
  },
  "CNJIN": {
    "name": "Jian",
    "coordinates": [
      114.97,
      27.12
    ],
    "city": "Jian",
    "province": "Jiangxi",
    "country": "China",
    "alias": [],
    "regions": [],
    "timezone": "Asia/Shanghai",
    "unlocs": [
      "CNJIN"
    ],
    "code": "57000"
  },
  "CNJIU": {
    "name": "Jiujiang Port",
    "coordinates": [
      115.97,
      29.72
    ],
    "city": "Jiujiang",
    "province": "Jiangxi",
    "country": "China",
    "alias": [],
    "regions": [],
    "timezone": "Asia/Shanghai",
    "unlocs": [
      "CNJIU"
    ],
    "code": "57000"
  },
  "CNJMN": {
    "name": "Jiangmen Port",
    "coordinates": [
      113.07,
      22.58
    ],
    "city": "Jiangmen",
    "province": "Guangdong",
    "country": "China",
    "alias": [],
    "regions": [],
    "timezone": "Asia/Shanghai",
    "unlocs": [
      "CNJMN"
    ],
    "code": "57000"
  },
  "CNJNZ": {
    "name": "Jinzhou Port",
    "coordinates": [
      121.15,
      41.12
    ],
    "city": "Jinzhou",
    "province": "Liaoning",
    "country": "China",
    "alias": [],
    "regions": [],
    "timezone": "Asia/Shanghai",
    "unlocs": [
      "CNJNZ"
    ],
    "code": "57000"
  },
  "CNJXN": {
    "name": "Jiao Xin",
    "city": "Jiao Xin",
    "province": "Guangdong",
    "country": "China",
    "alias": [],
    "regions": [],
    "coordinates": [
      113.3136949,
      22.7024799
    ],
    "timezone": "Asia/Shanghai",
    "unlocs": [
      "CNJXN"
    ],
    "code": "57000"
  },
  "CNJZU": {
    "name": "Jiuzhou Port",
    "city": "Jiuzhou",
    "province": "Guangdong",
    "country": "China",
    "alias": [],
    "regions": [],
    "coordinates": [
      116.122239,
      24.288615
    ],
    "timezone": "Asia/Shanghai",
    "unlocs": [
      "CNJZU"
    ],
    "code": "57077"
  },
  "CNKHN": {
    "name": "Nanchang",
    "city": "Nanchang",
    "province": "Jiangxi",
    "country": "China",
    "alias": [],
    "regions": [],
    "coordinates": [
      115.858198,
      28.682892
    ],
    "timezone": "Asia/Shanghai",
    "unlocs": [
      "CNKHN"
    ],
    "code": "57000"
  },
  "CNKMG": {
    "name": "Kunming",
    "city": "Kunming",
    "province": "Yunnan",
    "country": "China",
    "alias": [],
    "regions": [],
    "coordinates": [
      102.832892,
      24.880095
    ],
    "timezone": "Asia/Shanghai",
    "unlocs": [
      "CNKMG"
    ],
    "code": "57000"
  },
  "CNKPN": {
    "name": "Kaiping",
    "coordinates": [
      118.3,
      39.7
    ],
    "city": "Kaiping",
    "province": "Hebei",
    "country": "China",
    "alias": [],
    "regions": [],
    "timezone": "Asia/Shanghai",
    "unlocs": [
      "CNKPN"
    ],
    "code": "57000"
  },
  "CNLAN": {
    "name": "Lanshi Port",
    "city": "Lanshi",
    "country": "China",
    "alias": [],
    "regions": [],
    "coordinates": [
      113.981592,
      22.9701602
    ],
    "province": "Guangdong Sheng",
    "timezone": "Asia/Shanghai",
    "unlocs": [
      "CNLAN"
    ],
    "code": "57000"
  },
  "CNLGH": {
    "name": "Longhua",
    "city": "Longhua",
    "province": "Guangdong",
    "country": "China",
    "alias": [],
    "regions": [],
    "coordinates": [
      114.020921,
      22.63964
    ],
    "timezone": "Asia/Shanghai",
    "unlocs": [
      "CNLGH"
    ],
    "code": "57000"
  },
  "CNLIH": {
    "name": "Lianhuashan Port",
    "coordinates": [
      115.27,
      23.02
    ],
    "city": "Lianhuashan",
    "province": "Guangdong",
    "country": "China",
    "alias": [],
    "regions": [],
    "timezone": "Asia/Shanghai",
    "unlocs": [
      "CNLIH"
    ],
    "code": "57000"
  },
  "CNLKU": {
    "name": "Longkou Port",
    "coordinates": [
      120.35,
      37.65
    ],
    "city": "Longkou",
    "province": "Shandong",
    "country": "China",
    "alias": [],
    "regions": [],
    "timezone": "Asia/Shanghai",
    "unlocs": [
      "CNLKU"
    ],
    "code": "57000"
  },
  "CNLSI": {
    "name": "Lanshi",
    "coordinates": [
      113.6,
      26.15
    ],
    "city": "Lanshi",
    "province": "Hunan",
    "country": "China",
    "alias": [],
    "regions": [],
    "timezone": "Asia/Shanghai",
    "unlocs": [
      "CNLSI"
    ],
    "code": "57000"
  },
  "CNLYG": {
    "name": "Lianyungang",
    "coordinates": [
      119.43,
      34.72
    ],
    "city": "Lianyungang",
    "province": "Jiangsu",
    "country": "China",
    "alias": [],
    "regions": [],
    "timezone": "Asia/Shanghai",
    "unlocs": [
      "CNLYG"
    ],
    "code": "57025"
  },
  "CNLZH": {
    "name": "Liuzhou Port",
    "coordinates": [
      109.4,
      23.32
    ],
    "city": "Liuzhou",
    "province": "Guangxi",
    "country": "China",
    "alias": [],
    "regions": [],
    "timezone": "Asia/Shanghai",
    "unlocs": [
      "CNLZH"
    ],
    "code": "57000"
  },
  "CNMAW": {
    "name": "Mawei Port",
    "coordinates": [
      119.45,
      25.98
    ],
    "city": "Mawei",
    "province": "Fujian",
    "country": "China",
    "alias": [],
    "regions": [],
    "timezone": "Asia/Shanghai",
    "unlocs": [
      "CNMAW"
    ],
    "code": "57000"
  },
  "CNMMI": {
    "name": "Maoming",
    "city": "Maoming",
    "province": "Guangdong",
    "country": "China",
    "alias": [],
    "regions": [],
    "coordinates": [
      110.925456,
      21.662999
    ],
    "timezone": "Asia/Shanghai",
    "unlocs": [
      "CNMMI"
    ],
    "code": "57000"
  },
  "CNMWN": {
    "name": "Mawan Port",
    "coordinates": [
      113.88,
      22.45
    ],
    "city": "Mawan",
    "province": "Guangdong",
    "country": "China",
    "alias": [],
    "regions": [],
    "timezone": "Asia/Shanghai",
    "unlocs": [
      "CNMWN"
    ],
    "code": "57000"
  },
  "CNMYG": {
    "name": "Mianyang",
    "coordinates": [
      104.7,
      31.5
    ],
    "city": "Mianyang",
    "province": "Sichuan",
    "country": "China",
    "alias": [],
    "regions": [],
    "timezone": "Asia/Shanghai",
    "unlocs": [
      "CNMYG"
    ],
    "code": "57000"
  },
  "CNNAH": {
    "name": "Nanhai Port",
    "coordinates": [
      113.15,
      23.02
    ],
    "city": "Nanhai",
    "province": "Guangdong",
    "country": "China",
    "alias": [],
    "regions": [],
    "timezone": "Asia/Shanghai",
    "unlocs": [
      "CNNAH"
    ],
    "code": "57000"
  },
  "CNNBO": {
    "name": "Ningbo",
    "city": "Ningbo",
    "province": "Zhejiang",
    "country": "China",
    "alias": [],
    "regions": [],
    "coordinates": [
      121.54399,
      29.868336
    ],
    "timezone": "Asia/Shanghai",
    "unlocs": [
      "CNNGB",
      "CNNBO"
    ],
    "code": "57020"
  },